<s:Envelope xmlns:s="http://schemas.xmlsoap.org/soap/envelope/"><s:Body xmlns:xsi="http://www.w3.org/2001/XMLSchema-instance" xmlns:xsd="http://www.w3.org/2001/XMLSchema"><HotelsByDestinationResponse xmlns="http://touricoholidays.com/WSDestinations/2008/08/DataContracts"><DestinationResult Version="9" Culture="en_US" ResultNum="1" ServerTime="11/24/2015 3:04:32 AM"><Continent name="Africa" elementType="8" destinationId="1000000" provider="2;39" status="UpToDate"><Country name="Algeria" elementType="7" destinationId="2000058" provider="2" status="UpToDate"><State name="" elementType="6" destinationId="0" provider="" status="UpToDate" StateShort=""><City name="Ain Benian" elementType="3" destinationId="25647" provider="2" status="UpToDate" destinationCode="ALG" cityLatitude="" cityLongitude=""><Hotels><Hotel hotelId="1323580" hotelName="Hammamet Ain Beniane" destinationId="25647" hotelLatitude="36.805723853" hotelLongitude="2.958004013" address="Route Nationale No 11, Grand Rocher, Cap Caxine" zip="16000" city="Ain Benian" countryCode="DZ" destinationCode="ALG" stars="3" status="UpToDate" bestVal="0" providerId="2" uploaded="false"/></Hotels></City><City name="Algiers" elementType="3" destinationId="209" provider="2" status="UpToDate" destinationCode="ALG" cityLatitude="36.76818896264800" cityLongitude="3.04541443816084"><Hotels><Hotel hotelId="1323564" hotelName="Dar Diaf Hotel" destinationId="209" hotelLatitude="36.751498000" hotelLongitude="3.051817000" address="48 Boulevard des Martyrs" zip="16000" city="Algiers" countryCode="DZ" destinationCode="ALG" stars="3" status="UpToDate" bestVal="0" providerId="2" uploaded="false"/><Hotel hotelId="1322477" hotelName="Dar El Ikram" destinationId="209" hotelLatitude="36.764209000" hotelLongitude="3.045506000" address="24 Rue Nezzar Kebaili Aissa" zip="16000" city="Algiers" countryCode="DZ" destinationCode="ALG" stars="3" status="UpToDate" bestVal="0" providerId="2" uploaded="false"/><Hotel hotelId="1322465" hotelName="El Aurassi" destinationId="209" hotelLatitude="36.775982924" hotelLongitude="3.050746885" address="2 Boulevard Frantz Fanon-Les Tagsarins Alger" zip="16000" city="Algiers" countryCode="DZ" destinationCode="ALG" stars="5" status="UpToDate" bestVal="0" providerId="2" uploaded="false"/><Hotel hotelId="1322459" hotelName="EL Djazair" destinationId="209" hotelLatitude="36.754374558" hotelLongitude="3.046196242" address="24 Avenue Souidani Boudjemaa, Les Tagarins Alger" zip="16000" city="Algiers" countryCode="DZ" destinationCode="ALG" stars="5" status="UpToDate" bestVal="0" providerId="2" uploaded="false"/><Hotel hotelId="1323571" hotelName="Grand Hotel Adghir" destinationId="209" hotelLatitude="36.745323448" hotelLongitude="3.178142269" address="26, des Frees Mokrani, Lido Bordj El Kiffan" zip="16000" city="Algiers" countryCode="DZ" destinationCode="ALG" stars="3" status="UpToDate" bestVal="0" providerId="2" uploaded="false"/><Hotel hotelId="1323567" hotelName="Hilton Algiers" destinationId="209" hotelLatitude="36.738342913" hotelLongitude="3.156616337" address="Pins Maritimes, El Mohammadia" zip="16000" city="Algiers" countryCode="DZ" destinationCode="ALG" stars="5" status="UpToDate" bestVal="0" providerId="2" uploaded="false"/><Hotel hotelId="1322472" hotelName="Hydra" destinationId="209" hotelLatitude="36.738380106" hotelLongitude="3.030070653" address="venue. Ben Youcef Benkhedda (ex: Sidi Yahia) Bp.16 Bis Said Hamdine Hydra" zip="16000" city="Algiers" countryCode="DZ" destinationCode="ALG" stars="3" status="UpToDate" bestVal="0" providerId="2" uploaded="false"/><Hotel hotelId="1445819" hotelName="Le Palace Appart " destinationId="209" hotelLatitude="36.745792000" hotelLongitude="3.187131000" address="3, rue Saidi Ahmed, Bordj El-kiffan" zip="16000" city="Algiers" countryCode="DZ" destinationCode="ALG" stars="3" status="UpToDate" bestVal="0" providerId="2" uploaded="false"/><Hotel hotelId="1428743" hotelName="Le Sheraton Club Des Pins" destinationId="209" hotelLatitude="36.763324000" hotelLongitude="2.873877000" address="BP 62, Club Des Pins Staoueli" zip="16101" city="Algiers" countryCode="DZ" destinationCode="ALG" stars="5" status="UpToDate" bestVal="0" providerId="2" uploaded="false"/><Hotel hotelId="1322468" hotelName="Mercure Alger Aeroport" destinationId="209" hotelLatitude="36.713988201" hotelLongitude="3.195968627" address="Route de L'Universite bp 12 5 Jullier Bab Ezzouar" zip="16000" city="Algiers" countryCode="DZ" destinationCode="ALG" stars="5" status="UpToDate" bestVal="0" providerId="2" uploaded="false"/><Hotel hotelId="1323573" hotelName="Oasis Hotel" destinationId="209" hotelLatitude="36.741053012" hotelLongitude="3.091791898" address="32 Rue Mouloud Belhouchet, Hussein Day" zip="16000" city="Algiers" countryCode="DZ" destinationCode="ALG" stars="5" status="UpToDate" bestVal="0" providerId="2" uploaded="false"/><Hotel hotelId="1322463" hotelName="Safir Algiers" destinationId="209" hotelLatitude="36.777182110" hotelLongitude="3.059396957" address="02, rue Asselah Hocine, Alger" zip="16000" city="Algiers" countryCode="DZ" destinationCode="ALG" stars="4" status="UpToDate" bestVal="0" providerId="2" uploaded="false"/><Hotel hotelId="1323554" hotelName="Samir Hotel" destinationId="209" hotelLatitude="36.765644000" hotelLongitude="3.050670000" address="74 Rue Didouche Mourad" zip="16000" city="Algiers" countryCode="DZ" destinationCode="ALG" stars="3" status="UpToDate" bestVal="0" providerId="2" uploaded="false"/><Hotel hotelId="1323551" hotelName="Sofitel Algiers Hamma Garden" destinationId="209" hotelLatitude="36.750988612" hotelLongitude="3.073422560" address="172 rue Hassiba Benbouali " zip="16015" city="Algiers" countryCode="DZ" destinationCode="ALG" stars="5" status="UpToDate" bestVal="0" providerId="2" uploaded="false"/></Hotels></City><City name="Oran" elementType="3" destinationId="7620" provider="2" status="UpToDate" destinationCode="ORN" cityLatitude="35.70507684852470" cityLongitude="-0.63705659972470"><CityLocation name="" elementType="2" destinationId="11051" provider="2" status="UpToDate" location="Es Senia" destinationCode="ORN" city="Oran" cityDestinationId="7620"><Hotels><Hotel hotelId="1338567" hotelName="Best Western Plus Liberte Hotel" destinationId="11051" hotelLatitude="35.699066457" hotelLongitude="-0.598915085" address="Zone Des Sieges" zip="31000" city="Oran" location="Es Senia" countryCode="DZ" destinationCode="ORN" stars="4" status="UpToDate" bestVal="0" providerId="2" uploaded="false"/></Hotels></CityLocation><Hotels><Hotel hotelId="1323576" hotelName="Charm El Cheikh" destinationId="7620" hotelLatitude="35.695844000" hotelLongitude="-0.645565000" address="14 Boulevard Zabana Ville Nouvelle" zip="16000" city="Oran" countryCode="DZ" destinationCode="ORN" stars="3" status="UpToDate" bestVal="0" providerId="2" uploaded="false"/><Hotel hotelId="1323251" hotelName="Eden Phoenix" destinationId="7620" hotelLatitude="35.619138700" hotelLongitude="-0.610964000" address="Rond Point de L Aeroport Es-Senia" zip="31000" city="Oran" countryCode="DZ" destinationCode="ORN" stars="4" status="UpToDate" bestVal="0" providerId="2" uploaded="false"/><Hotel hotelId="1323513" hotelName="Ibis Oran" destinationId="7620" hotelLatitude="35.714522956" hotelLongitude="-0.614805560" address="Avenue de Canastel Route Des Falaises " zip="31000" city="Oran" countryCode="DZ" destinationCode="ORN" stars="3" status="UpToDate" bestVal="0" providerId="2" uploaded="false"/><Hotel hotelId="1428741" hotelName="Le Meridien D'oran" destinationId="7620" hotelLatitude="35.726779000" hotelLongitude="-0.592727000" address="Les Genets Chemin de Wilaya, Route 75" zip="34000" city="Oran" countryCode="DZ" destinationCode="ORN" stars="5" status="UpToDate" bestVal="0" providerId="2" uploaded="false"/><Hotel hotelId="1428740" hotelName="Le Sheraton D'Oran" destinationId="7620" hotelLatitude="35.715726000" hotelLongitude="-0.609458000" address="BP 9152 Route des falaises Avenue canastel, Seddikia" zip="34000" city="Oran" countryCode="DZ" destinationCode="ORN" stars="5" status="UpToDate" bestVal="0" providerId="2" uploaded="false"/><Hotel hotelId="1323512" hotelName="Oran Center" destinationId="7620" hotelLatitude="35.702943000" hotelLongitude="-0.639177000" address="44, Rue Larbi Ben Mhidi - Oran Centre Ville" zip="31000" city="Oran" countryCode="DZ" destinationCode="ORN" stars="3" status="UpToDate" bestVal="0" providerId="2" uploaded="false"/><Hotel hotelId="1322464" hotelName="Royal Oran" destinationId="7620" hotelLatitude="35.703275438" hotelLongitude="-0.647855712" address="3 Boulevard de la Soumam Oran" zip="31000" city="Oran" countryCode="DZ" destinationCode="ORN" stars="5" status="UpToDate" bestVal="0" providerId="2" uploaded="false"/></Hotels></City><City name="Zeralda" elementType="3" destinationId="25646" provider="2" status="UpToDate" destinationCode="ALG" cityLatitude="" cityLongitude=""><Hotels><Hotel hotelId="1323578" hotelName="Safir Mazafran" destinationId="25646" hotelLatitude="36.726835855" hotelLongitude="2.837073822" address="Boite Postale 201 Zeralda" zip="16320" city="Zeralda" countryCode="DZ" destinationCode="ALG" stars="4" status="UpToDate" bestVal="0" providerId="2" uploaded="false"/></Hotels></City></State></Country><Country name="Angola" elementType="7" destinationId="2000008" provider="2" status="UpToDate"><State name="" elementType="6" destinationId="0" provider="" status="UpToDate" StateShort=""><City name="Luanda" elementType="3" destinationId="6064" provider="2" status="UpToDate" destinationCode="LAD" cityLatitude="-8.81243215678187" cityLongitude="13.23505648399330"><Hotels><Hotel hotelId="1222286" hotelName="Talatona Convention Hotel " destinationId="6064" hotelLatitude="-8.915365000" hotelLongitude="13.196704000" address="Talatona - Rua Luanda Sul" zip="CCB4 GU02" city="Luanda" countryCode="AO" destinationCode="LAD" stars="5" status="UpToDate" bestVal="0" providerId="2" uploaded="false"/></Hotels></City></State></Country><Country name="Bhutan" elementType="7" destinationId="2000030" provider="2" status="UpToDate"><State name="" elementType="6" destinationId="0" provider="" status="UpToDate" StateShort=""><City name="Thimbu" elementType="3" destinationId="10168" provider="2" status="UpToDate" destinationCode="QJC" cityLatitude="27.44687953816990" cityLongitude="89.67360825461080"><Hotels><Hotel hotelId="1443332" hotelName="Le Meridien Thimphu" destinationId="10168" hotelLatitude="27.558000000" hotelLongitude="89.560500000" address="Chorten Lam" zip="000000" city="Thimbu" countryCode="BT" destinationCode="QJC" stars="4" status="UpToDate" bestVal="0" providerId="2" uploaded="false"/></Hotels></City></State></Country><Country name="Cameroon" elementType="7" destinationId="2000044" provider="2" status="UpToDate"><State name="" elementType="6" destinationId="0" provider="" status="UpToDate" StateShort=""><City name="Douala" elementType="3" destinationId="3179" provider="2" status="UpToDate" destinationCode="DLA" cityLatitude="4.04752229082537" cityLongitude="9.70637243799501"><Hotels><Hotel hotelId="1415053" hotelName="Ibis Douala" destinationId="3179" hotelLatitude="4.039299090" hotelLongitude="9.687779491" address="Rue Pierre Loti" zip="" city="Douala" countryCode="CM" destinationCode="DLA" stars="3" status="UpToDate" bestVal="0" providerId="2" uploaded="false"/></Hotels></City><City name="Yaounde" elementType="3" destinationId="1238" provider="2" status="UpToDate" destinationCode="YAO" cityLatitude="3.87036682054910" cityLongitude="11.51839771913730"><Hotels><Hotel hotelId="1202079" hotelName="Hilton Yaounde hotel" destinationId="1238" hotelLatitude="3.861200000" hotelLongitude="11.521700000" address="Boulevard du 20 Mai" zip="" city="Yaounde" countryCode="CM" destinationCode="YAO" stars="4" status="UpToDate" bestVal="0" providerId="2" uploaded="false"/></Hotels></City></State></Country><Country name="Djibouti" elementType="7" destinationId="2000054" provider="2" status="UpToDate"><State name="" elementType="6" destinationId="0" provider="" status="UpToDate" StateShort=""><City name="Djibouti" elementType="3" destinationId="3134" provider="2" status="UpToDate" destinationCode="JIB" cityLatitude="11.59409926702950" cityLongitude="43.14519166613580"><Hotels><Hotel hotelId="1414721" hotelName="Djibouti Palace Kempinski" destinationId="3134" hotelLatitude="11.618091932" hotelLongitude="43.146218751" address="Ilot du Heron " zip="1960" city="Djibouti" countryCode="DJ" destinationCode="JIB" stars="4" status="UpToDate" bestVal="0" providerId="2" uploaded="false"/><Hotel hotelId="1400749" hotelName="Sheraton Djibouti Hotel" destinationId="3134" hotelLatitude="11.602677616" hotelLongitude="43.157494542" address="Plateau de Serpent" zip="1924" city="Djibouti" countryCode="DJ" destinationCode="JIB" stars="5" status="UpToDate" bestVal="0" providerId="2" uploaded="false"/></Hotels></City></State></Country><Country name="Egypt" elementType="7" destinationId="2000061" provider="2" status="UpToDate"><State name="" elementType="6" destinationId="0" provider="" status="UpToDate" StateShort=""><City name="Ain Soukhna" elementType="3" destinationId="22194" provider="2" status="UpToDate" destinationCode="CAI" cityLatitude="" cityLongitude=""><Hotels><Hotel hotelId="1431466" hotelName="Jaz Little Venice " destinationId="22194" hotelLatitude="29.721019000" hotelLongitude="32.382148000" address="36 KM Suez.  Hurghada Road" zip="" city="Ain Soukhna" countryCode="EG" destinationCode="CAI" stars="5" status="UpToDate" bestVal="0" providerId="2" uploaded="false"/></Hotels></City><City name="Alexandria" elementType="3" destinationId="199" provider="2" status="UpToDate" destinationCode="ALY" cityLatitude="31.18616563703630" cityLongitude="29.89466907254070"><Hotels><Hotel hotelId="1329755" hotelName="Grand Royal Alex Hotel" destinationId="199" hotelLatitude="31.201590000" hotelLongitude="29.901060000" address="No. 9 El-Borsa El-Kadyma St. Raml Station" zip="" city="Alexandria" countryCode="EG" destinationCode="ALY" stars="4" status="UpToDate" bestVal="0" providerId="2" uploaded="false"/><Hotel hotelId="1363628" hotelName="BORG EL ARAB HOTEL" destinationId="199" hotelLatitude="30.934623719" hotelLongitude="29.478721619" address="Mabouh Road, North Coast" zip="00000" city="Alexandria" countryCode="EG" destinationCode="ALY" stars="5" status="UpToDate" bestVal="0" providerId="2" uploaded="false"/><Hotel hotelId="1363295" hotelName="HELNAN PALESTINE" destinationId="199" hotelLatitude="31.095792543" hotelLongitude="29.840583801" address="Kasr El Montazah" zip="00000" city="Alexandria" countryCode="EG" destinationCode="ALY" stars="5" status="UpToDate" bestVal="0" providerId="2" uploaded="false"/><Hotel hotelId="1326951" hotelName="Hilton Alexandria Corniche" destinationId="199" hotelLatitude="31.261951909" hotelLongitude="29.984128603" address="544 El Geish Avenue Sidi Bishr" zip="21611" city="Alexandria" countryCode="EG" destinationCode="ALY" stars="5" status="UpToDate" bestVal="0" providerId="2" uploaded="false"/><Hotel hotelId="1227827" hotelName="Hilton Alexandria Green Plaza" destinationId="199" hotelLatitude="31.205250638" hotelLongitude="29.965886418" address="14th Of May Bridge Road - Smouha" zip="21615" city="Alexandria" countryCode="EG" destinationCode="ALY" stars="5" status="UpToDate" bestVal="0" providerId="2" uploaded="false"/><Hotel hotelId="1431174" hotelName="Iberotel Borg El Arab" destinationId="199" hotelLatitude="31.200092400" hotelLongitude="29.918738700" address="Km 52, Alex, Matruh Desert Road" zip="" city="Alexandria" countryCode="EG" destinationCode="ALY" stars="5" status="UpToDate" bestVal="0" providerId="2" uploaded="false"/><Hotel hotelId="1322020" hotelName="Mercure Romance Alexandria" destinationId="199" hotelLatitude="31.236816426" hotelLongitude="29.952792026" address="303 Tareek El Gueish Saba Pasha" zip="" city="Alexandria" countryCode="EG" destinationCode="ALY" stars="4" status="UpToDate" bestVal="0" providerId="2" uploaded="false"/><Hotel hotelId="1419099" hotelName="Radisson Blu Hotel Alexandria" destinationId="199" hotelLatitude="31.057432444" hotelLongitude="29.720586672" address="Alex West, Mehwar El Tanner Northen Coast Road 21st km" zip="" city="Alexandria" countryCode="EG" destinationCode="ALY" stars="5" status="UpToDate" bestVal="0" providerId="2" uploaded="false"/><Hotel hotelId="1216741" hotelName="Sheraton Montazah" destinationId="199" hotelLatitude="31.229400000" hotelLongitude="29.948600000" address="Corniche Road" zip="" city="Alexandria" countryCode="EG" destinationCode="ALY" stars="5" status="UpToDate" bestVal="0" providerId="2" uploaded="false"/></Hotels></City><City name="Aswan" elementType="3" destinationId="545" provider="2" status="UpToDate" destinationCode="ASW" cityLatitude="24.07776237156140" cityLongitude="32.91765957276960"><Hotels><Hotel hotelId="1334809" hotelName="Helnan Hotel Aswan" destinationId="545" hotelLatitude="24.108995553" hotelLongitude="32.901224049" address="Kournich el Nil Street" zip="" city="Aswan" countryCode="EG" destinationCode="ASW" stars="5" status="UpToDate" bestVal="0" providerId="2" uploaded="false"/><Hotel hotelId="1335357" hotelName="LTI-PYRAMISA ISIS ISLAND RESORT &amp; SPA" destinationId="545" hotelLatitude="24.078361469" hotelLongitude="32.880170345" address="River Nile Street, Isis Island" zip="00000" city="Aswan" countryCode="EG" destinationCode="ASW" stars="5" status="UpToDate" bestVal="0" providerId="2" uploaded="false"/><Hotel hotelId="1338650" hotelName="Moevenpick Resort Aswan" destinationId="545" hotelLatitude="24.091668508" hotelLongitude="32.887485360" address="Elephantine Island " zip="81111" city="Aswan" countryCode="EG" destinationCode="ASW" stars="5" status="UpToDate" bestVal="0" providerId="2" uploaded="false"/><Hotel hotelId="1335225" hotelName="PYRAMISA ISIS CORNICHE ASWAN HOTEL" destinationId="545" hotelLatitude="24.092623000" hotelLongitude="32.895630000" address="Corniche El Nil Street A//" zip="00000" city="Aswan" countryCode="EG" destinationCode="ASW" stars="4" status="UpToDate" bestVal="0" providerId="2" uploaded="false"/><Hotel hotelId="1341049" hotelName="Sofitel Legend Old Cataract Aswan " destinationId="545" hotelLatitude="24.082403000" hotelLongitude="32.887769000" address="Abtal El Tahrir Street" zip="" city="Aswan" countryCode="EG" destinationCode="ASW" stars="5" status="UpToDate" bestVal="0" providerId="2" uploaded="false"/></Hotels></City><City name="Cairo" elementType="3" destinationId="2184" provider="2" status="UpToDate" destinationCode="CAI" cityLatitude="30.05910929190330" cityLongitude="31.25091583036800"><CityLocation name="" elementType="2" destinationId="15915" provider="2" status="UpToDate" location="Airport Area" destinationCode="CAI" city="Cairo" cityDestinationId="2184"><Hotels><Hotel hotelId="1214595" hotelName="Fairmont Heliopolis" destinationId="15915" hotelLatitude="30.107169016" hotelLongitude="31.366167419" address="Uruba Street" zip="2466" city="Cairo" location="Airport Area" countryCode="EG" destinationCode="CAI" stars="5" status="UpToDate" bestVal="0" providerId="2" uploaded="false"/></Hotels></CityLocation><CityLocation name="" elementType="2" destinationId="20071" provider="2" status="UpToDate" location="Giza  Pyramids" destinationCode="CAI" city="Cairo" cityDestinationId="2184"><Hotels><Hotel hotelId="1233814" hotelName="Barcelo Cairo Pyramids" destinationId="20071" hotelLatitude="30.014349000" hotelLongitude="31.197259000" address="229 Al Haram Street" zip="" city="Cairo" location="Giza  Pyramids" countryCode="EG" destinationCode="CAI" stars="4" status="UpToDate" bestVal="0" providerId="2" uploaded="false"/><Hotel hotelId="1214961" hotelName="Hilton Pyramids Golf Resort" destinationId="20071" hotelLatitude="29.962799869" hotelLongitude="31.043701017" address="Dreamland, El Wahat Road" zip="2500" city="Cairo" location="Giza  Pyramids" countryCode="EG" destinationCode="CAI" stars="5" status="UpToDate" bestVal="0" providerId="2" uploaded="false"/><Hotel hotelId="1326956" hotelName="Safir Hotel Cairo" destinationId="20071" hotelLatitude="30.035388043" hotelLongitude="31.211884467" address="El Misaha Square" zip="138 Orman" city="Cairo" location="Giza  Pyramids" countryCode="EG" destinationCode="CAI" stars="5" status="UpToDate" bestVal="0" providerId="2" uploaded="false"/></Hotels></CityLocation><CityLocation name="" elementType="2" destinationId="20072" provider="2" status="UpToDate" location="Zamalek" destinationCode="CAI" city="Cairo" cityDestinationId="2184"><Hotels><Hotel hotelId="1209741" hotelName="Golden Tulip Flamenco Hotel" destinationId="20072" hotelLatitude="30.067706294" hotelLongitude="31.217780712" address="02 El Gezira El Wosta Street" zip="11211" city="Cairo" location="Zamalek" countryCode="EG" destinationCode="CAI" stars="4" status="UpToDate" bestVal="0" providerId="2" uploaded="false"/></Hotels></CityLocation><CityLocation name="" elementType="2" destinationId="20073" provider="2" status="UpToDate" location="Heliopolis" destinationCode="CAI" city="Cairo" cityDestinationId="2184"><Hotels><Hotel hotelId="1210654" hotelName="Fairmont Towers Heliopolis" destinationId="20073" hotelLatitude="30.106467932" hotelLongitude="31.364443654" address="El Shaheed Sayed Zakaria Street from Uruba Street " zip="2466 " city="Cairo" location="Heliopolis" countryCode="EG" destinationCode="CAI" stars="5" status="UpToDate" bestVal="0" providerId="2" uploaded="false"/><Hotel hotelId="1035966" hotelName="Sonesta Cairo Hotel and Casino" destinationId="20073" hotelLatitude="30.079237354" hotelLongitude="31.317914479" address="3 El Tayaran Street" zip="9039" city="Cairo" location="Heliopolis" countryCode="EG" destinationCode="CAI" stars="5" status="UpToDate" bestVal="0" providerId="2" uploaded="false"/></Hotels></CityLocation><CityLocation name="" elementType="2" destinationId="21657" provider="2" status="UpToDate" location="Downtown" destinationCode="CAI" city="Cairo" cityDestinationId="2184"><Hotels><Hotel hotelId="1214966" hotelName="Ramses Hilton" destinationId="21657" hotelLatitude="30.050389443" hotelLongitude="31.231957977" address="1115 Corniche El Nile" zip="12344" city="Cairo" location="Downtown" countryCode="EG" destinationCode="CAI" stars="5" status="UpToDate" bestVal="0" providerId="2" uploaded="false"/><Hotel hotelId="1217437" hotelName="Dusit Thani Lakeview Cairo" destinationId="21657" hotelLatitude="30.026279367" hotelLongitude="31.454770399" address="The Lakeview, El Tesseen Street, City Center, Fifth Settlement" zip="71 11835" city="Cairo" location="Downtown" countryCode="EG" destinationCode="CAI" stars="5" status="UpToDate" bestVal="0" providerId="2" uploaded="false"/></Hotels></CityLocation><Hotels><Hotel hotelId="1214964" hotelName="Conrad Cairo" destinationId="2184" hotelLatitude="30.065530875" hotelLongitude="31.227663510" address="1191 Corniche El Nile" zip="12221" city="Cairo" countryCode="EG" destinationCode="CAI" stars="5" status="UpToDate" bestVal="0" providerId="2" uploaded="false"/><Hotel hotelId="1322329" hotelName="Sofitel Cairo El Gezirah" destinationId="2184" hotelLatitude="30.038807933" hotelLongitude="31.224252946" address="3 El Thawra Council St Zamalek PO Box 732 El Orman" zip="11518" city="Cairo" countryCode="EG" destinationCode="CAI" stars="5" status="UpToDate" bestVal="0" providerId="2" uploaded="false"/><Hotel hotelId="1335002" hotelName="AMARANTE PYRAMIDS GIZA CAIRO" destinationId="2184" hotelLatitude="30.006818675" hotelLongitude="31.184542179" address="Villa Youssef Wakby, 29 Abou Hazem Street, (Off Pyramids Road)" zip="00000" city="Cairo" countryCode="EG" destinationCode="CAI" stars="4" status="UpToDate" bestVal="0" providerId="2" uploaded="false"/><Hotel hotelId="1033603" hotelName="Concorde El Salam Hotel Cairo" destinationId="2184" hotelLatitude="30.123915534" hotelLongitude="31.347856185" address="65 Abdel Hamid Badawi Street, Heliopolis" zip="1" city="Cairo" countryCode="EG" destinationCode="CAI" stars="5" status="UpToDate" bestVal="0" providerId="2" uploaded="false"/><Hotel hotelId="1334958" hotelName="FAIRMONT NILE CITY" destinationId="2184" hotelLatitude="30.071995475" hotelLongitude="31.227462888" address="2005 B, Corniche El Nil, Ramlet Beaulac" zip="2466" city="Cairo" countryCode="EG" destinationCode="CAI" stars="5" status="UpToDate" bestVal="0" providerId="2" uploaded="false"/><Hotel hotelId="1335289" hotelName="FOUR SEASONS CAIRO AT THE FIRST RESIDENCE" destinationId="2184" hotelLatitude="30.024255985" hotelLongitude="31.217522621" address="35 Giza Street" zip="00000" city="Cairo" countryCode="EG" destinationCode="CAI" stars="5" status="UpToDate" bestVal="0" providerId="2" uploaded="false"/><Hotel hotelId="1335286" hotelName="FOUR SEASONS HOTEL CAIRO AT NILE PLAZA" destinationId="2184" hotelLatitude="30.065593469" hotelLongitude="31.248990297" address="1089 Corniche El Nile" zip="63" city="Cairo" countryCode="EG" destinationCode="CAI" stars="5" status="UpToDate" bestVal="0" providerId="2" uploaded="false"/><Hotel hotelId="1415004" hotelName="GOLDEN PARK HOTEL - Heliopolis-Cairo" destinationId="2184" hotelLatitude="30.115384000" hotelLongitude="31.351925000" address="221 El Hegaz St, Heliopolis" zip="11351" city="Cairo" countryCode="EG" destinationCode="CAI" stars="3" status="UpToDate" bestVal="0" providerId="2" uploaded="false"/><Hotel hotelId="1202016" hotelName="Hilton Cairo World Trade Center Residence" destinationId="2184" hotelLatitude="30.050000000" hotelLongitude="31.250000000" address="1191 Courniche El Nile Street" zip="" city="Cairo" countryCode="EG" destinationCode="CAI" stars="4" status="UpToDate" bestVal="0" providerId="2" uploaded="false"/><Hotel hotelId="1326957" hotelName="Hilton Cairo Zamalek Residence" destinationId="2184" hotelLatitude="30.067768000" hotelLongitude="31.222142000" address="21 Mohamed Mazhar Street" zip="11211" city="Cairo" countryCode="EG" destinationCode="CAI" stars="4.5" status="UpToDate" bestVal="0" providerId="2" uploaded="false"/><Hotel hotelId="1430801" hotelName="Hilton Cairo Zamalek Residences" destinationId="2184" hotelLatitude="30.067700000" hotelLongitude="31.222500000" address="21 Mohamed Mazhar Street" zip="11211" city="Cairo" countryCode="EG" destinationCode="CAI" stars="4" status="UpToDate" bestVal="0" providerId="2" uploaded="false"/><Hotel hotelId="1327506" hotelName="Kempinski Nile Hotel" destinationId="2184" hotelLatitude="30.038652000" hotelLongitude="31.230269000" address="Ahmed Ragheb Street 12" zip="11519" city="Cairo" countryCode="EG" destinationCode="CAI" stars="5" status="UpToDate" bestVal="0" providerId="2" uploaded="false"/><Hotel hotelId="1418303" hotelName="Le Meridien Cairo Airport Hotel" destinationId="2184" hotelLatitude="30.113443000" hotelLongitude="31.395402000" address="Cairo Airport, Terminal 3 / Heliopolis" zip="" city="Cairo" countryCode="EG" destinationCode="CAI" stars="4.5" status="UpToDate" bestVal="0" providerId="2" uploaded="false"/><Hotel hotelId="1033840" hotelName="Le Meridien Heliopolis Hotel" destinationId="2184" hotelLatitude="0" hotelLongitude="0" address="51 Al Orouba St" zip="11341" city="Cairo" countryCode="EG" destinationCode="CAI" stars="5" status="UpToDate" bestVal="0" providerId="2" uploaded="false"/><Hotel hotelId="1418301" hotelName="Le Meridien Pyramids" destinationId="2184" hotelLatitude="29.989211019" hotelLongitude="31.130151423" address="El Remaya Square-Pyramids PO Box 25" zip="12561" city="Cairo" countryCode="EG" destinationCode="CAI" stars="4" status="UpToDate" bestVal="0" providerId="2" uploaded="false"/><Hotel hotelId="1335276" hotelName="LE PASSAGE CAIRO HOTEL" destinationId="2184" hotelLatitude="30.090997102" hotelLongitude="31.322700083" address="Int L Airport Road, Heliopolis, 11361" zip="00000" city="Cairo" countryCode="EG" destinationCode="CAI" stars="5" status="UpToDate" bestVal="0" providerId="2" uploaded="false"/><Hotel hotelId="1325587" hotelName="Mercure Le Sphinx" destinationId="2184" hotelLatitude="29.990065973" hotelLongitude="31.128129946" address="1 Alexandria Desert Road" zip="12556" city="Cairo" countryCode="EG" destinationCode="CAI" stars="5" status="UpToDate" bestVal="0" providerId="2" uploaded="false"/><Hotel hotelId="1358247" hotelName="Moevenpick Hotel Cairo Pyramids" destinationId="2184" hotelLatitude="30.812139900" hotelLongitude="30.751255500" address="01 Cairo Alex Road Giza" zip="11231" city="Cairo" countryCode="EG" destinationCode="CAI" stars="5" status="UpToDate" bestVal="0" providerId="2" uploaded="false"/><Hotel hotelId="1363751" hotelName="MOVENPICK RESORT PYRAMIDS" destinationId="2184" hotelLatitude="29.993170000" hotelLongitude="31.125892000" address="Alexandria Road, 1 Giza, Pyramids" zip="00000" city="Cairo" countryCode="EG" destinationCode="CAI" stars="5" status="UpToDate" bestVal="0" providerId="2" uploaded="false"/><Hotel hotelId="1325597" hotelName="Novotel Cairo 6th of October City" destinationId="2184" hotelLatitude="29.996775000" hotelLongitude="30.968876000" address="26th of July Street, Beside Dar EI Fouad Hospital" zip="1" city="Cairo" countryCode="EG" destinationCode="CAI" stars="4" status="UpToDate" bestVal="0" providerId="2" uploaded="false"/><Hotel hotelId="1321389" hotelName="Novotel Cairo Airport *Dup 1035270" destinationId="2184" hotelLatitude="30.120853713" hotelLongitude="31.403072452" address="Cairo International Airport, Oruba Road, Heliopolis" zip="11776" city="Cairo" countryCode="EG" destinationCode="CAI" stars="4" status="UpToDate" bestVal="0" providerId="2" uploaded="false"/><Hotel hotelId="1325604" hotelName="Novotel Cairo El Borg" destinationId="2184" hotelLatitude="30.044374276" hotelLongitude="31.226062831" address="3 Saray El Gezirah Street" zip="11211" city="Cairo" countryCode="EG" destinationCode="CAI" stars="4" status="UpToDate" bestVal="0" providerId="2" uploaded="false"/><Hotel hotelId="1335233" hotelName="OM KOLTHOOM" destinationId="2184" hotelLatitude="30.064497798" hotelLongitude="31.215897202" address="5 Abu El Feda Street El Zamalek" zip="00000" city="Cairo" countryCode="EG" destinationCode="CAI" stars="4" status="UpToDate" bestVal="0" providerId="2" uploaded="false"/><Hotel hotelId="1363741" hotelName="PYRAMIDS PARK INTERCONTINENTAL RESORT" destinationId="2184" hotelLatitude="30.000565766" hotelLongitude="31.116070747" address="Alexandria Desert Road, Giza" zip="00000" city="Cairo" countryCode="EG" destinationCode="CAI" stars="5" status="UpToDate" bestVal="0" providerId="2" uploaded="false"/><Hotel hotelId="1335280" hotelName="PYRAMISA SUITES HOTEL AND CASINO" destinationId="2184" hotelLatitude="30.037423000" hotelLongitude="31.218573000" address="60 Giza Street - Dokki" zip="00000" city="Cairo" countryCode="EG" destinationCode="CAI" stars="5" status="UpToDate" bestVal="0" providerId="2" uploaded="false"/><Hotel hotelId="1412325" hotelName="Radisson Blu Hotel Cairo Heliopolis" destinationId="2184" hotelLatitude="30.106434335" hotelLongitude="31.375375085" address="Abd El Hamid Badawy Street,  Heliopolis Cairo Egypt" zip="11361" city="Cairo" countryCode="EG" destinationCode="CAI" stars="5" status="UpToDate" bestVal="0" providerId="2" uploaded="false"/><Hotel hotelId="1035134" hotelName="Sheraton Cairo Hotel Towers and Casino" destinationId="2184" hotelLatitude="26.74701566712810" hotelLongitude="29.86898073107230" address="Galae Square" zip="1" city="Cairo" countryCode="EG" destinationCode="CAI" stars="5" status="UpToDate" bestVal="0" providerId="2" uploaded="false"/><Hotel hotelId="1418307" hotelName="Sheraton Dream Land Hotel" destinationId="2184" hotelLatitude="29.963909052" hotelLongitude="31.055859983" address="Dreamland. Wahat Road. 6th of October City" zip="" city="Cairo" countryCode="EG" destinationCode="CAI" stars="5" status="UpToDate" bestVal="0" providerId="2" uploaded="false"/><Hotel hotelId="1435918" hotelName="Tolip El Galaa Cairo Hotel" destinationId="2184" hotelLatitude="30.047508825" hotelLongitude="31.238215551" address="Al Orouba Street,Heliopolis" zip="1" city="Cairo" countryCode="EG" destinationCode="CAI" stars="5" status="UpToDate" bestVal="0" providerId="2" uploaded="false"/></Hotels></City><City name="Dahab" elementType="3" destinationId="17601" provider="2" status="UpToDate" destinationCode="SSH" cityLatitude="28.50827215216960" cityLongitude="34.51558232909410"><Hotels><Hotel hotelId="1215721" hotelName="Dahab Plaza Hotel" destinationId="17601" hotelLatitude="28.494903000" hotelLongitude="34.514950000" address="Al Masbat Area Al Asala St Befor Magra Al Seall" zip="11511" city="Dahab" countryCode="EG" destinationCode="SSH" stars="1.5" status="UpToDate" bestVal="0" providerId="2" uploaded="false"/><Hotel hotelId="1220993" hotelName="Iberotel Dahabeya " destinationId="17601" hotelLatitude="28.479610000" hotelLongitude="34.490460000" address="P.O. Box 83, Dahab, South Sinai, Egypt" zip="" city="Dahab" countryCode="EG" destinationCode="SSH" stars="4" status="UpToDate" bestVal="0" providerId="2" uploaded="false"/><Hotel hotelId="1329912" hotelName="Ibis Styles Dahab Lagoon" destinationId="17601" hotelLatitude="28.509181925" hotelLongitude="34.513634876" address="PO Box 23, South Sinai" zip="" city="Dahab" countryCode="EG" destinationCode="SSH" stars="3.5" status="UpToDate" bestVal="0" providerId="2" uploaded="false"/></Hotels></City><City name="Dakhla Oasis" elementType="3" destinationId="2928" provider="2" status="UpToDate" destinationCode="DAK" cityLatitude="26.74701566712810" cityLongitude="29.86898073107230"><Hotels><Hotel hotelId="1429646" hotelName="Sol Y Mar Mut Inn" destinationId="2928" hotelLatitude="25.500000000" hotelLongitude="29.166666700" address="AL Dakhla Oasis, Gamal Abdel Nasser Street, New Valley" zip="" city="Dakhla Oasis" countryCode="EG" destinationCode="DAK" stars="5" status="UpToDate" bestVal="0" providerId="2" uploaded="false"/></Hotels></City><City name="El Gouna" elementType="3" destinationId="18701" provider="2" status="UpToDate" destinationCode="HRG" cityLatitude="26.74701566712810" cityLongitude="29.86898073107230"><Hotels><Hotel hotelId="1431419" hotelName="Movenpick Resort &amp; Spa El Gouna" destinationId="18701" hotelLatitude="27.395650816" hotelLongitude="33.684554000" address="PO Box 72, Hurghada" zip="" city="El Gouna" countryCode="EG" destinationCode="HRG" stars="5" status="UpToDate" bestVal="0" providerId="2" uploaded="false"/></Hotels></City><City name="Giza" elementType="3" destinationId="26170" provider="2" status="UpToDate" destinationCode="CAI" cityLatitude="" cityLongitude=""><Hotels><Hotel hotelId="1445942" hotelName="Amarante Pyramids Hotel" destinationId="26170" hotelLatitude="30.007386278" hotelLongitude="31.183894551" address="29 Abou Hazem Street, Faisel" zip="112111" city="Giza" countryCode="EG" destinationCode="CAI" stars="4" status="UpToDate" bestVal="0" providerId="2" uploaded="false"/><Hotel hotelId="1332407" hotelName="Gawharet Al Ahram Hotel" destinationId="26170" hotelLatitude="30.092044319" hotelLongitude="31.320506521" address="103, Al Haram street" zip="12555" city="Giza" countryCode="EG" destinationCode="CAI" stars="4" status="UpToDate" bestVal="0" providerId="2" uploaded="false"/><Hotel hotelId="1341339" hotelName="Moevenpick Media City" destinationId="26170" hotelLatitude="29.964826000" hotelLongitude="31.020378000" address="El Hay El Motamayez " zip="12451" city="Giza" countryCode="EG" destinationCode="CAI" stars="5" status="UpToDate" bestVal="0" providerId="2" uploaded="false"/></Hotels></City><City name="Hurghada" elementType="3" destinationId="4578" provider="2" status="UpToDate" destinationCode="HRG" cityLatitude="27.22833226774970" cityLongitude="33.84107041270400"><CityLocation name="" elementType="2" destinationId="17868" provider="2" status="UpToDate" location="Soma Bay" destinationCode="HRG" city="Hurghada" cityDestinationId="4578"><Hotels><Hotel hotelId="1445771" hotelName="Kempinski Hotel Soma Bay" destinationId="17868" hotelLatitude="26.849968000" hotelLongitude="33.988137000" address="Qesm Safaga, Red Sea Governate" zip="" city="Hurghada" location="Soma Bay" countryCode="EG" destinationCode="HRG" stars="5" status="UpToDate" bestVal="0" providerId="2" uploaded="false"/></Hotels></CityLocation><CityLocation name="" elementType="2" destinationId="22199" provider="2" status="UpToDate" location="Madinat Makadi" destinationCode="HRG" city="Hurghada" cityDestinationId="4578"><Hotels><Hotel hotelId="1220889" hotelName="Iberotel Makadi Beach*currency" destinationId="22199" hotelLatitude="27.227960000" hotelLongitude="33.842470000" address="Madinat Makadi, Safaga Road, P.O. Box 387, Hurghada, red Sea, Egypt" zip="" city="Hurghada" location="Madinat Makadi" countryCode="EG" destinationCode="HRG" stars="5" status="UpToDate" bestVal="0" providerId="2" uploaded="false"/><Hotel hotelId="1220944" hotelName="Iberotel Makadi Saraya Resort*currency" destinationId="22199" hotelLatitude="27.227960000" hotelLongitude="33.842470000" address="Madinat Makadi, Hurghada, Red Sea, Egypt" zip="" city="Hurghada" location="Madinat Makadi" countryCode="EG" destinationCode="HRG" stars="5" status="UpToDate" bestVal="0" providerId="2" uploaded="false"/><Hotel hotelId="1437524" hotelName="Jaz Aquaviva" destinationId="22199" hotelLatitude="26.998760000" hotelLongitude="33.908306000" address="Madinat Makadi, Safaga Road" zip="P.O Box 178" city="Hurghada" location="Madinat Makadi" countryCode="EG" destinationCode="HRG" stars="5" status="UpToDate" bestVal="0" providerId="2" uploaded="false"/><Hotel hotelId="1220893" hotelName="Sol Y Mar Makadi Sun" destinationId="22199" hotelLatitude="26.983333000" hotelLongitude="33.900000000" address="P.O. Box 178 Safaga Road, Hurghada, Red Sea, Egypt" zip="" city="Hurghada" location="Madinat Makadi" countryCode="EG" destinationCode="HRG" stars="4" status="UpToDate" bestVal="0" providerId="2" uploaded="false"/><Hotel hotelId="1220890" hotelName="Steigenberger Makadi" destinationId="22199" hotelLatitude="26.983333000" hotelLongitude="33.900000000" address="Makadi Bay, Madinat Makadi, P.O. Box 178 Hurghada, Red Sea, Egypt" zip="" city="Hurghada" location="Madinat Makadi" countryCode="EG" destinationCode="HRG" stars="5" status="UpToDate" bestVal="0" providerId="2" uploaded="false"/></Hotels></CityLocation><Hotels><Hotel hotelId="1328262" hotelName="FESTIVAL LE JARDIN RESORT" destinationId="4578" hotelLatitude="0.000000000" hotelLongitude="0.000000000" address="KM 11, AHIA ROAD-NORTH - RED SEA" zip="00000" city="Hurghada" countryCode="EG" destinationCode="HRG" stars="4" status="UpToDate" bestVal="0" providerId="2" uploaded="false"/><Hotel hotelId="1328169" hotelName="FESTIVAL RIVIERA RESORT" destinationId="4578" hotelLatitude="0.000000000" hotelLongitude="0.000000000" address="Km 11, Ahia Road-North -Red Sea" zip="00000" city="Hurghada" countryCode="EG" destinationCode="HRG" stars="4" status="UpToDate" bestVal="0" providerId="2" uploaded="false"/><Hotel hotelId="1335505" hotelName="FESTIVAL SHEDWAN GOLDEN BEACH" destinationId="4578" hotelLatitude="0.000000000" hotelLongitude="0.000000000" address="P\.O\. BOX 128, EL DAHAR - EL KORNESH ROAD, DOWN TOWN" zip="00000" city="Hurghada" countryCode="EG" destinationCode="HRG" stars="3" status="UpToDate" bestVal="0" providerId="2" uploaded="false"/><Hotel hotelId="1220832" hotelName="Hilton Hurghada Long Beach" destinationId="4578" hotelLatitude="27.082135135" hotelLongitude="33.858961979" address="Sahl Hashish Road" zip="84511" city="Hurghada" countryCode="EG" destinationCode="HRG" stars="4" status="UpToDate" bestVal="0" providerId="2" uploaded="false"/><Hotel hotelId="1220833" hotelName="Hilton Hurghada Plaza" destinationId="4578" hotelLatitude="27.256899767" hotelLongitude="33.830734660" address="Gabal El Hareem Street, Red Sea" zip="" city="Hurghada" countryCode="EG" destinationCode="HRG" stars="5" status="UpToDate" bestVal="0" providerId="2" uploaded="false"/><Hotel hotelId="1430892" hotelName="Hilton Hurghada Resort" destinationId="4578" hotelLatitude="27.208878000" hotelLongitude="33.845573000" address="Hurghada Bay- Safaga Road" zip="000000" city="Hurghada" countryCode="EG" destinationCode="HRG" stars="5" status="UpToDate" bestVal="0" providerId="2" uploaded="false"/><Hotel hotelId="1363786" hotelName="HILTON HURGHADA RESORT" destinationId="4578" hotelLatitude="27.235000000" hotelLongitude="33.841000000" address="Main Street Safaga, Tahrir Square, Cairo" zip="00000" city="Hurghada" countryCode="EG" destinationCode="HRG" stars="5" status="UpToDate" bestVal="0" providerId="2" uploaded="false"/><Hotel hotelId="1429033" hotelName="Iberotel Makadi Oasis Resort  " destinationId="4578" hotelLatitude="27.257895700" hotelLongitude="33.811606700" address="Madinat Makadi" zip="" city="Hurghada" countryCode="EG" destinationCode="HRG" stars="4" status="UpToDate" bestVal="0" providerId="2" uploaded="false"/><Hotel hotelId="1221068" hotelName="Iberotel Makadi Oasis Resort  " destinationId="4578" hotelLatitude="27.228738664" hotelLongitude="33.840725488" address="Madinat Makadi" zip="" city="Hurghada" countryCode="EG" destinationCode="HRG" stars="4" status="UpToDate" bestVal="0" providerId="2" uploaded="false"/><Hotel hotelId="1220816" hotelName="Jaz Aquamarine*Currency" destinationId="4578" hotelLatitude="27.257400000" hotelLongitude="33.809700000" address="Magawish District, South Sahl Hashish Road, Hurghada, Red Sea, Egypt" zip="" city="Hurghada" countryCode="EG" destinationCode="HRG" stars="5" status="UpToDate" bestVal="0" providerId="2" uploaded="false"/><Hotel hotelId="1432140" hotelName="Jaz Makadi Saraya Palms" destinationId="4578" hotelLatitude="27.257895700" hotelLongitude="33.811606700" address="Madinat Makadi, Safaga Road" zip="" city="Hurghada" countryCode="EG" destinationCode="HRG" stars="4.5" status="UpToDate" bestVal="0" providerId="2" uploaded="false"/><Hotel hotelId="1335009" hotelName="JAZ MAKADI STAR" destinationId="4578" hotelLatitude="26.989735000" hotelLongitude="33.895338000" address="Madinat Makadi, P\.O\. Box 178, Red Sea" zip="00000" city="Hurghada" countryCode="EG" destinationCode="HRG" stars="5" status="UpToDate" bestVal="0" providerId="2" uploaded="false"/><Hotel hotelId="1429638" hotelName="Jaz Makadi Star and Spa " destinationId="4578" hotelLatitude="27.257895700" hotelLongitude="33.811606700" address="Madinat Makadi, P.O. Box 178 Hurghada, Red Sea" zip="" city="Hurghada" countryCode="EG" destinationCode="HRG" stars="5" status="UpToDate" bestVal="0" providerId="2" uploaded="false"/><Hotel hotelId="1429345" hotelName="Jaz Makadina" destinationId="4578" hotelLatitude="27.211575000" hotelLongitude="33.842914000" address="P.O. Box 193, Hurghada Red Sea" zip="" city="Hurghada" countryCode="EG" destinationCode="HRG" stars="4" status="UpToDate" bestVal="0" providerId="2" uploaded="false"/><Hotel hotelId="1334997" hotelName="JAZ MAKADINA (FORMALLY SOL Y MAR CLUB MAKADI)" destinationId="4578" hotelLatitude="26.990805100" hotelLongitude="33.898267100" address="Safaga Road, Makadi Resort, Makadi Bay" zip="PO Box 193" city="Hurghada" countryCode="EG" destinationCode="HRG" stars="5" status="UpToDate" bestVal="0" providerId="2" uploaded="false"/><Hotel hotelId="1446133" hotelName="Lillyland Beach Club Resort" destinationId="4578" hotelLatitude="27.092711000" hotelLongitude="33.839280000" address="17 km Hurghada - Safaga Road, Red Sea" zip="84517" city="Hurghada" countryCode="EG" destinationCode="HRG" stars="4" status="UpToDate" bestVal="0" providerId="2" uploaded="false"/><Hotel hotelId="1322008" hotelName="Mercure Hurghada" destinationId="4578" hotelLatitude="27.132354093" hotelLongitude="33.828798465" address="Safaga Road km 12" zip="0" city="Hurghada" countryCode="EG" destinationCode="HRG" stars="4" status="UpToDate" bestVal="0" providerId="2" uploaded="false"/><Hotel hotelId="1335524" hotelName="MOVENPICK RESORT HURGHADA" destinationId="4578" hotelLatitude="0.000000000" hotelLongitude="0.000000000" address="El Fareek Youssef Affifi St\., Red Sea" zip="PO Box 36" city="Hurghada" countryCode="EG" destinationCode="HRG" stars="5" status="UpToDate" bestVal="0" providerId="2" uploaded="false"/><Hotel hotelId="1328170" hotelName="PYRAMISA SUNSET PEARL" destinationId="4578" hotelLatitude="0.000000000" hotelLongitude="0.000000000" address="Sahl Hasheesh Bay" zip="00000" city="Hurghada" countryCode="EG" destinationCode="HRG" stars="5" status="UpToDate" bestVal="0" providerId="2" uploaded="false"/><Hotel hotelId="1328172" hotelName="SENTIDO MAMLOUK PALACE RESORT AND SPA" destinationId="4578" hotelLatitude="0.000000000" hotelLongitude="0.000000000" address="Km 20 ,Safaga Road P\.O\. Box 385,Red Sea" zip="00000" city="Hurghada" countryCode="EG" destinationCode="HRG" stars="5" status="UpToDate" bestVal="0" providerId="2" uploaded="false"/><Hotel hotelId="1440399" hotelName="Sheraton Miramar Resort- El Gouna" destinationId="4578" hotelLatitude="27.405501000" hotelLongitude="33.677714000" address="El Gouna" zip="" city="Hurghada" countryCode="EG" destinationCode="HRG" stars="5" status="UpToDate" bestVal="0" providerId="2" uploaded="false"/><Hotel hotelId="1220873" hotelName="Sol Y Mar Ivory Suites" destinationId="4578" hotelLatitude="27.228738664" hotelLongitude="33.840725488" address="El Kawsar District, Hurghada, Red Sea, Egypt" zip="" city="Hurghada" countryCode="EG" destinationCode="HRG" stars="4" status="UpToDate" bestVal="0" providerId="2" uploaded="false"/><Hotel hotelId="1431464" hotelName="Sol Y Mar Paradise Beach" destinationId="4578" hotelLatitude="27.257895700" hotelLongitude="33.811606700" address="Safaga Tourism Center, Safaga, Red Sea, Egypt" zip="" city="Hurghada" countryCode="EG" destinationCode="HRG" stars="4" status="UpToDate" bestVal="0" providerId="2" uploaded="false"/><Hotel hotelId="1335232" hotelName="SUNRISE GARDEN BEACH RESORT" destinationId="4578" hotelLatitude="27.257776982" hotelLongitude="33.811665326" address="20 Km Safaga Road" zip="00000" city="Hurghada" countryCode="EG" destinationCode="HRG" stars="5" status="UpToDate" bestVal="0" providerId="2" uploaded="false"/><Hotel hotelId="1328200" hotelName="SUNRISE GRAND SELECT CRYSTAL BAY" destinationId="4578" hotelLatitude="27.102628223" hotelLongitude="33.828878403" address="Km 17 Safaga Road, P\.O\. Box 20 ,Safaga ,Red" zip="00000" city="Hurghada" countryCode="EG" destinationCode="HRG" stars="4" status="UpToDate" bestVal="0" providerId="2" uploaded="false"/><Hotel hotelId="1328196" hotelName="SUNRISE HOLIDAYS RESORT (ADULTS ONLY)" destinationId="4578" hotelLatitude="27.209278008" hotelLongitude="33.846216202" address="Corniche Road, Sheraton Street, Red Sea" zip="00000" city="Hurghada" countryCode="EG" destinationCode="HRG" stars="5" status="UpToDate" bestVal="0" providerId="2" uploaded="false"/><Hotel hotelId="1357068" hotelName="SUNRISE SELECT ROYAL MAKADI" destinationId="4578" hotelLatitude="26.996890079" hotelLongitude="33.897457123" address="Makadi Bay, P\.O\. Box 623, Red Sea" zip="00000" city="Hurghada" countryCode="EG" destinationCode="HRG" stars="5" status="UpToDate" bestVal="0" providerId="2" uploaded="false"/></Hotels></City><City name="Ismailia" elementType="3" destinationId="4760" provider="2" status="UpToDate" destinationCode="QIV" cityLatitude="30.58920710357720" cityLongitude="32.26582729951860"><Hotels><Hotel hotelId="1322010" hotelName="Mercure Ismailia Forsan Island Hotel" destinationId="4760" hotelLatitude="30.586573301" hotelLongitude="32.288174227" address="Forsan island, PO box 77" zip="" city="Ismailia" countryCode="EG" destinationCode="QIV" stars="4" status="UpToDate" bestVal="0" providerId="2" uploaded="false"/></Hotels></City><City name="Kharga" elementType="3" destinationId="5239" provider="2" status="UpToDate" destinationCode="UVL" cityLatitude="25.43562276158020" cityLongitude="30.55681151634380"><Hotels><Hotel hotelId="1429640" hotelName="Sol Y Mar Pioneers El Kharga" destinationId="5239" hotelLatitude="25.439038800" hotelLongitude="30.558604300" address="Al Kharga Oasis, Gamal Abd El Nasser Street, New Valley, Al Kharga Oasis" zip="" city="Kharga" countryCode="EG" destinationCode="UVL" stars="4.5" status="UpToDate" bestVal="0" providerId="2" uploaded="false"/></Hotels></City><City name="Luxor" elementType="3" destinationId="6120" provider="2" status="UpToDate" destinationCode="LXR" cityLatitude="25.69568392177570" cityLongitude="32.64737191183920"><Hotels><Hotel hotelId="1229803" hotelName="Gaddis Luxor Hotel, Suites and Apartments" destinationId="6120" hotelLatitude="25.691037834" hotelLongitude="32.633644152" address="Khaled Ibn El Walid Street, P O Box 43 Awameya" zip="85111" city="Luxor" countryCode="EG" destinationCode="LXR" stars="3" status="UpToDate" bestVal="0" providerId="2" uploaded="false"/><Hotel hotelId="1214968" hotelName="Hilton Luxor Resort &amp; Spa" destinationId="6120" hotelLatitude="25.730204264" hotelLongitude="32.656576347" address="P.O. Box 13, New Kamark" zip="" city="Luxor" countryCode="EG" destinationCode="LXR" stars="5" status="UpToDate" bestVal="0" providerId="2" uploaded="false"/><Hotel hotelId="1220884" hotelName="Iberotel Luxor*Currency" destinationId="6120" hotelLatitude="25.696955000" hotelLongitude="32.639049000" address="Khaled Ibn El Walid Street, Luxor Egypt. P.O.Box (28)" zip="" city="Luxor" countryCode="EG" destinationCode="LXR" stars="4" status="UpToDate" bestVal="0" providerId="2" uploaded="false"/><Hotel hotelId="1223743" hotelName="Maritim Jolie Ville Kings Island Luxor" destinationId="6120" hotelLatitude="25.669000000" hotelLongitude="32.623622000" address="Awameya Road" zip="0" city="Luxor" countryCode="EG" destinationCode="LXR" stars="5" status="UpToDate" bestVal="0" providerId="2" uploaded="false"/><Hotel hotelId="1433042" hotelName="Mercure Luxor Karnak" destinationId="6120" hotelLatitude="25.740725000" hotelLongitude="32.665542000" address=" El Zinia Gebly Street" zip="0" city="Luxor" countryCode="EG" destinationCode="LXR" stars="5" status="UpToDate" bestVal="0" providerId="2" uploaded="false"/><Hotel hotelId="1335297" hotelName="PYRAMISA ISIS LUXOR HOTEL" destinationId="6120" hotelLatitude="25.686745000" hotelLongitude="32.630585000" address="Khaled Ibn El Waleed street A St" zip="00000" city="Luxor" countryCode="EG" destinationCode="LXR" stars="4" status="UpToDate" bestVal="0" providerId="2" uploaded="false"/><Hotel hotelId="1341050" hotelName="Sofitel Pavillon Winter Luxor" destinationId="6120" hotelLatitude="25.696830346" hotelLongitude="32.636469683" address="17 Cornish El Nile Street" zip="" city="Luxor" countryCode="EG" destinationCode="LXR" stars="4" status="UpToDate" bestVal="0" providerId="2" uploaded="false"/><Hotel hotelId="1341051" hotelName="Sofitel Winter Palace Luxor" destinationId="6120" hotelLatitude="25.696856431" hotelLongitude="32.636796642" address="17,Cornish El Nile Street" zip="" city="Luxor" countryCode="EG" destinationCode="LXR" stars="5" status="UpToDate" bestVal="0" providerId="2" uploaded="false"/></Hotels></City><City name="Marsa Alam" elementType="3" destinationId="6435" provider="2" status="UpToDate" destinationCode="RMF" cityLatitude="26.74701566712810" cityLongitude="29.86898073107230"><Hotels><Hotel hotelId="1431038" hotelName="Hilton Marsa Alam Nubian Resort" destinationId="6435" hotelLatitude="25.345759000" hotelLongitude="34.735617000" address="KM 97 Qusir Marsa Alam Rd Abo Dabab Bay" zip="84721" city="Marsa Alam" countryCode="EG" destinationCode="RMF" stars="4" status="UpToDate" bestVal="0" providerId="2" uploaded="false"/><Hotel hotelId="1335307" hotelName="HILTON MARSA ALAM NUBIAN RESORT" destinationId="6435" hotelLatitude="25.345759000" hotelLongitude="34.735617000" address="KM 97 Quseir Road, Abu Dabab Bay, Abu Dabab" zip="00000" city="Marsa Alam" countryCode="EG" destinationCode="RMF" stars="5" status="UpToDate" bestVal="0" providerId="2" uploaded="false"/><Hotel hotelId="1428957" hotelName="Iberotel Coraya Beach - Adults Only Resort" destinationId="6435" hotelLatitude="25.604340000" hotelLongitude="34.603873000" address="Madinat Coraya, km 67 Al Quseir, Marsa Alam Road, Red Sea, Egypt" zip="" city="Marsa Alam" countryCode="EG" destinationCode="RMF" stars="5" status="UpToDate" bestVal="0" providerId="2" uploaded="false"/><Hotel hotelId="1335033" hotelName="IBEROTEL LAMAYA RESORT" destinationId="6435" hotelLatitude="25.076561900" hotelLongitude="34.890287500" address="Madinat Coraya, km 67 Al Quseir, Road" zip="00000" city="Marsa Alam" countryCode="EG" destinationCode="RMF" stars="5" status="UpToDate" bestVal="0" providerId="2" uploaded="false"/><Hotel hotelId="1429347" hotelName="Jaz Dar El Madina" destinationId="6435" hotelLatitude="25.066667000" hotelLongitude="34.900000000" address="Madinat Coraya, Marsa Alam, Red Sea, Egypt" zip="" city="Marsa Alam" countryCode="EG" destinationCode="RMF" stars="4" status="UpToDate" bestVal="0" providerId="2" uploaded="false"/><Hotel hotelId="1220946" hotelName="Jaz Dar El Madina" destinationId="6435" hotelLatitude="25.598170000" hotelLongitude="34.608910000" address="Madinat Coraya, Marsa Alam, Red Sea, Egypt" zip="" city="Marsa Alam" countryCode="EG" destinationCode="RMF" stars="4" status="UpToDate" bestVal="0" providerId="2" uploaded="false"/><Hotel hotelId="1428898" hotelName="Jaz Lamaya" destinationId="6435" hotelLatitude="25.601022000" hotelLongitude="34.608875000" address="Madinat Coraya, km 67 Al Quseir, Marsa Alam Road, Red Sea, Egypt" zip="" city="Marsa Alam" countryCode="EG" destinationCode="RMF" stars="5" status="UpToDate" bestVal="0" providerId="2" uploaded="false"/><Hotel hotelId="1429351" hotelName="Jaz Solaya" destinationId="6435" hotelLatitude="25.066667000" hotelLongitude="34.900000000" address="Madinat Coraya, Marsa Alam, Red Sea, Egypt" zip="" city="Marsa Alam" countryCode="EG" destinationCode="RMF" stars="5" status="UpToDate" bestVal="0" providerId="2" uploaded="false"/><Hotel hotelId="1220954" hotelName="Jaz Solaya" destinationId="6435" hotelLatitude="25.599370000" hotelLongitude="34.607010000" address="Madinat Coraya, Marsa Alam, Red Sea, Egypt" zip="" city="Marsa Alam" countryCode="EG" destinationCode="RMF" stars="5" status="UpToDate" bestVal="0" providerId="2" uploaded="false"/><Hotel hotelId="1329829" hotelName="Onatti Beach Resort" destinationId="6435" hotelLatitude="25.970659254" hotelLongitude="34.361133480" address="16 , Km. South of Quseir Red Sea Quseir - Marsa Alam Road" zip="84712" city="Marsa Alam" countryCode="EG" destinationCode="RMF" stars="4" status="UpToDate" bestVal="0" providerId="2" uploaded="false"/></Hotels></City><City name="Mersa Matruh" elementType="3" destinationId="6614" provider="2" status="UpToDate" destinationCode="MUH" cityLatitude="31.35025410165670" cityLongitude="27.23690074006350"><Hotels><Hotel hotelId="1430703" hotelName="Almazino Hotel" destinationId="6614" hotelLatitude="31.354344500" hotelLongitude="27.237315900" address="Almaza Bay, North Coast, Km 37 East of Mersa Matruh" zip="" city="Mersa Matruh" countryCode="EG" destinationCode="MUH" stars="4" status="UpToDate" bestVal="0" providerId="2" uploaded="false"/><Hotel hotelId="1429575" hotelName="Jaz Almaza Bay" destinationId="6614" hotelLatitude="31.354344500" hotelLongitude="27.237315900" address="Km 37 East Mersa Matruh" zip="" city="Mersa Matruh" countryCode="EG" destinationCode="MUH" stars="5" status="UpToDate" bestVal="0" providerId="2" uploaded="false"/><Hotel hotelId="1437415" hotelName="Jaz Crystal Resort" destinationId="6614" hotelLatitude="31.199321000" hotelLongitude="27.553725000" address="Km 37 East  Mersa Matruh" zip="" city="Mersa Matruh" countryCode="EG" destinationCode="MUH" stars="5" status="UpToDate" bestVal="0" providerId="2" uploaded="false"/><Hotel hotelId="1402700" hotelName="Jaz Crystal Resort" destinationId="6614" hotelLatitude="31.349743064" hotelLongitude="27.233197542" address="Km 37 East Mersa Matruh" zip="" city="Mersa Matruh" countryCode="EG" destinationCode="MUH" stars="5" status="UpToDate" bestVal="0" providerId="2" uploaded="false"/><Hotel hotelId="1430697" hotelName="Jaz Oriental Beach Resort " destinationId="6614" hotelLatitude="31.354344500" hotelLongitude="27.237315900" address="North Coast, km37 east of Mersa Matruh" zip="" city="Mersa Matruh" countryCode="EG" destinationCode="MUH" stars="5" status="UpToDate" bestVal="0" providerId="2" uploaded="false"/></Hotels></City><City name="Red Sea" elementType="3" destinationId="17247" provider="2" status="UpToDate" destinationCode="RMF" cityLatitude="26.74701566712810" cityLongitude="29.86898073107230"><Hotels><Hotel hotelId="1431271" hotelName="Laguna Beach Resort" destinationId="17247" hotelLatitude="24.918566000" hotelLongitude="34.961957000" address="17 KM South Marsa Alam City" zip="61111" city="Red Sea" countryCode="EG" destinationCode="RMF" stars="4" status="UpToDate" bestVal="0" providerId="2" uploaded="false"/><Hotel hotelId="1418304" hotelName="Le Meridien Dahab Resort &amp; Spa" destinationId="17247" hotelLatitude="0" hotelLongitude="0" address="PO Box 2  South Sinai" zip="" city="Red Sea" countryCode="EG" destinationCode="RMF" stars="5" status="UpToDate" bestVal="0" providerId="2" uploaded="false"/></Hotels></City><City name="Sharm El Sheikh" elementType="3" destinationId="9334" provider="2" status="UpToDate" destinationCode="SSH" cityLatitude="26.74701566712810" cityLongitude="29.86898073107230"><CityLocation name="" elementType="2" destinationId="21249" provider="2" status="UpToDate" location="Ras Umm Sid" destinationCode="SSH" city="Sharm El Sheikh" cityDestinationId="9334"><Hotels><Hotel hotelId="1214938" hotelName="Hilton Sharm Waterfalls Resort" destinationId="21249" hotelLatitude="27.855578144" hotelLongitude="34.315296822" address="Ras Um El-Sid Cliff" zip="" city="Sharm El Sheikh" location="Ras Umm Sid" countryCode="EG" destinationCode="SSH" stars="5" status="UpToDate" bestVal="0" providerId="2" uploaded="false"/></Hotels></CityLocation><CityLocation name="" elementType="2" destinationId="21688" provider="2" status="UpToDate" location="Naama Bay" destinationCode="SSH" city="Sharm El Sheikh" cityDestinationId="9334"><Hotels><Hotel hotelId="1214972" hotelName="Hilton Sharm Dreams Resort" destinationId="21688" hotelLatitude="27.915420507" hotelLongitude="34.327173989" address="210 Naama Bay South Sinai" zip="" city="Sharm El Sheikh" location="Naama Bay" countryCode="EG" destinationCode="SSH" stars="5" status="UpToDate" bestVal="0" providerId="2" uploaded="false"/><Hotel hotelId="1214973" hotelName="Hilton Sharm El Sheikh Fayrouz Resort" destinationId="21688" hotelLatitude="27.914438094" hotelLongitude="34.327930372" address="South Sinai" zip="57" city="Sharm El Sheikh" location="Naama Bay" countryCode="EG" destinationCode="SSH" stars="5" status="UpToDate" bestVal="0" providerId="2" uploaded="false"/><Hotel hotelId="1221073" hotelName="Iberotel Lido " destinationId="21688" hotelLatitude="27.861070747" hotelLongitude="34.280610161" address="Neama Bay, Sharm El Sheikh, South Sinai, Egypt" zip="" city="Sharm El Sheikh" location="Naama Bay" countryCode="EG" destinationCode="SSH" stars="4" status="UpToDate" bestVal="0" providerId="2" uploaded="false"/><Hotel hotelId="1233383" hotelName="Oriental Rivoli Hotel (Adults Only)" destinationId="21688" hotelLatitude="27.912671000" hotelLongitude="34.322328000" address="Peace Rroad, Naama Bay" zip="375" city="Sharm El Sheikh" location="Naama Bay" countryCode="EG" destinationCode="SSH" stars="4" status="UpToDate" bestVal="0" providerId="2" uploaded="false"/></Hotels></CityLocation><CityLocation name="" elementType="2" destinationId="22206" provider="2" status="UpToDate" location="Shark  Bay" destinationCode="SSH" city="Sharm El Sheikh" cityDestinationId="9334"><Hotels><Hotel hotelId="1214974" hotelName="Hilton Sharks Bay Resort" destinationId="22206" hotelLatitude="27.983628407" hotelLongitude="34.420566249" address="Ras Nusrani, Sharks Bay" zip="" city="Sharm El Sheikh" location="Shark  Bay" countryCode="EG" destinationCode="SSH" stars="4" status="UpToDate" bestVal="0" providerId="2" uploaded="false"/></Hotels></CityLocation><Hotels><Hotel hotelId="1225798" hotelName="Maritim Jolie Ville Royal Peninsula- All Inclusive" destinationId="9334" hotelLatitude="27.859800000" hotelLongitude="34.282400000" address="Peace Road at Um Marikha Bay" zip="" city="Sharm El Sheikh" countryCode="EG" destinationCode="SSH" stars="5" status="UpToDate" bestVal="0" providerId="2" uploaded="false"/><Hotel hotelId="1357075" hotelName="CONCORDE EL SALAM" destinationId="9334" hotelLatitude="27.964299900" hotelLongitude="34.399073100" address="White Knight Beach, PO Box 91, South Sinai" zip="00000" city="Sharm El Sheikh" countryCode="EG" destinationCode="SSH" stars="5" status="UpToDate" bestVal="0" providerId="2" uploaded="false"/><Hotel hotelId="1335303" hotelName="FALCON HILLS" destinationId="9334" hotelLatitude="27.861070750" hotelLongitude="34.280610160" address="Ras Um Sid Plateau" zip="00000" city="Sharm El Sheikh" countryCode="EG" destinationCode="SSH" stars="3" status="UpToDate" bestVal="0" providerId="2" uploaded="false"/><Hotel hotelId="1363760" hotelName="FALCON NAAMA STAR HOTEL" destinationId="9334" hotelLatitude="27.861070750" hotelLongitude="34.280610160" address="King Abdallah Street Naama Bay South Sinai" zip="00000" city="Sharm El Sheikh" countryCode="EG" destinationCode="SSH" stars="3" status="UpToDate" bestVal="0" providerId="2" uploaded="false"/><Hotel hotelId="1431570" hotelName="Four Seasons Resort Sharm El Sheikh" destinationId="9334" hotelLatitude="27.864217073" hotelLongitude="34.292070771" address="1 Four Seasons Boulevard, El-Salam, Qesm Sharm Ash Sheikh" zip="" city="Sharm El Sheikh" countryCode="EG" destinationCode="SSH" stars="5" status="UpToDate" bestVal="0" providerId="2" uploaded="false"/><Hotel hotelId="1357074" hotelName="FOUR SEASONS RESORT SHARM EL SHEIKH" destinationId="9334" hotelLatitude="27.955027164" hotelLongitude="34.393160315" address="One Four Seasons Boulevard" zip="203" city="Sharm El Sheikh" countryCode="EG" destinationCode="SSH" stars="5" status="UpToDate" bestVal="0" providerId="2" uploaded="false"/><Hotel hotelId="1436891" hotelName="Helnan Marina Sharm Hotel" destinationId="9334" hotelLatitude="27.907304462" hotelLongitude="34.326671344" address="Naama Bay" zip="" city="Sharm El Sheikh" countryCode="EG" destinationCode="SSH" stars="4" status="UpToDate" bestVal="0" providerId="2" uploaded="false"/><Hotel hotelId="1220982" hotelName="Iberotel Club Fanara " destinationId="9334" hotelLatitude="27.850460000" hotelLongitude="34.312310000" address="Ras Om El-Seid, P.O. Box 176, Sharm El Sheikh, Egypt" zip="" city="Sharm El Sheikh" countryCode="EG" destinationCode="SSH" stars="4" status="UpToDate" bestVal="0" providerId="2" uploaded="false"/><Hotel hotelId="1429647" hotelName="Iberotel Il Mercato Hotel &amp; Spa&#x9;" destinationId="9334" hotelLatitude="27.863619000" hotelLongitude="34.312706000" address="Hadabet Om El Seed, Sharm El Sheikh, South Sinai" zip="" city="Sharm El Sheikh" countryCode="EG" destinationCode="SSH" stars="5" status="UpToDate" bestVal="0" providerId="2" uploaded="false"/><Hotel hotelId="1428969" hotelName="Iberotel Palace - Adults Only Resort" destinationId="9334" hotelLatitude="27.863692000" hotelLongitude="34.293641000" address="Sharm EL Maya Bay" zip="" city="Sharm El Sheikh" countryCode="EG" destinationCode="SSH" stars="5" status="UpToDate" bestVal="0" providerId="2" uploaded="false"/><Hotel hotelId="1221006" hotelName="Jaz Belvedere Resort" destinationId="9334" hotelLatitude="27.981600000" hotelLongitude="34.423210000" address="El Montaza, Sharm El-Sheikh, South Sinai, Egypt" zip="" city="Sharm El Sheikh" countryCode="EG" destinationCode="SSH" stars="5" status="UpToDate" bestVal="0" providerId="2" uploaded="false"/><Hotel hotelId="1429025" hotelName="Jaz Mirabel Beach Resort" destinationId="9334" hotelLatitude="28.026110400" hotelLongitude="34.433982200" address="Nabq Bay, P.O. Box 377, South Sinai, Egypt" zip="" city="Sharm El Sheikh" countryCode="EG" destinationCode="SSH" stars="4" status="UpToDate" bestVal="0" providerId="2" uploaded="false"/><Hotel hotelId="1221019" hotelName="Jaz Mirabel Beach Resort" destinationId="9334" hotelLatitude="28.057300000" hotelLongitude="34.438400000" address="Nabq Bay, P.O. Box 377, South Sinai, Egypt" zip="" city="Sharm El Sheikh" countryCode="EG" destinationCode="SSH" stars="4" status="UpToDate" bestVal="0" providerId="2" uploaded="false"/><Hotel hotelId="1221037" hotelName="Jaz Mirabel Club" destinationId="9334" hotelLatitude="28.058250000" hotelLongitude="34.433740000" address="Nabq Bay, P.O. Box 377, South Sinai, Sharm El-Sheikh, Egypt" zip="" city="Sharm El Sheikh" countryCode="EG" destinationCode="SSH" stars="5" status="UpToDate" bestVal="0" providerId="2" uploaded="false"/><Hotel hotelId="1221051" hotelName="Jaz Mirabel Park " destinationId="9334" hotelLatitude="28.057300000" hotelLongitude="34.438400000" address="Nabq Bay, P.O. Box 377, South Sinai, Egypt" zip="" city="Sharm El Sheikh" countryCode="EG" destinationCode="SSH" stars="4" status="UpToDate" bestVal="0" providerId="2" uploaded="false"/><Hotel hotelId="1436434" hotelName="Melia Sharm Resort &amp; Spa" destinationId="9334" hotelLatitude="27.964807535" hotelLongitude="34.416516380" address="Montazah Ras Nasrani" zip="00000" city="Sharm El Sheikh" countryCode="EG" destinationCode="SSH" stars="5" status="UpToDate" bestVal="0" providerId="2" uploaded="false"/><Hotel hotelId="1436427" hotelName="Melia Sinai Hotel &amp; Resort" destinationId="9334" hotelLatitude="27.964755583" hotelLongitude="34.416553000" address="Montazah/Ras Nasrani" zip="0000" city="Sharm El Sheikh" countryCode="EG" destinationCode="SSH" stars="5" status="UpToDate" bestVal="0" providerId="2" uploaded="false"/><Hotel hotelId="1033551" hotelName="Movenpick Sharm Naama Bay" destinationId="9334" hotelLatitude="27.914761882" hotelLongitude="34.341561536" address="Naama Bay South Sinai " zip="46619" city="Sharm El Sheikh" countryCode="EG" destinationCode="SSH" stars="5" status="UpToDate" bestVal="0" providerId="2" uploaded="false"/><Hotel hotelId="1330659" hotelName="Novotel Sharm El Sheikh" destinationId="9334" hotelLatitude="27.914611000" hotelLongitude="34.331555000" address=" Naama Bay" zip="32" city="Sharm El Sheikh" countryCode="EG" destinationCode="SSH" stars="5" status="UpToDate" bestVal="0" providerId="2" uploaded="false"/><Hotel hotelId="1325591" hotelName="Novotel Sharm El Sheikh" destinationId="9334" hotelLatitude="27.916003131" hotelLongitude="34.331026019" address="Na'ama Bay Sharm El Sheikh" zip="" city="Sharm El Sheikh" countryCode="EG" destinationCode="SSH" stars="5" status="UpToDate" bestVal="0" providerId="2" uploaded="false"/><Hotel hotelId="1217333" hotelName="Oonas Dive Club" destinationId="9334" hotelLatitude="27.861070747" hotelLongitude="34.280610161" address="2 Naama Bay" zip="2" city="Sharm El Sheikh" countryCode="EG" destinationCode="SSH" stars="3" status="UpToDate" bestVal="0" providerId="2" uploaded="false"/><Hotel hotelId="1431324" hotelName="Park Inn By Radisson Sharm El Sheikh Resort" destinationId="9334" hotelLatitude="28.026549752" hotelLongitude="34.434826690" address="P.O Box 180, Nabq" zip="" city="Sharm El Sheikh" countryCode="EG" destinationCode="SSH" stars="4" status="UpToDate" bestVal="0" providerId="2" uploaded="false"/><Hotel hotelId="1431326" hotelName="Radisson Blu Resort Sharm El Sheikh" destinationId="9334" hotelLatitude="28.025748287" hotelLongitude="34.438821581" address="P.O Box 180, Nabq" zip="" city="Sharm El Sheikh" countryCode="EG" destinationCode="SSH" stars="5" status="UpToDate" bestVal="0" providerId="2" uploaded="false"/><Hotel hotelId="1433169" hotelName="Regency Plaza Aqua Park and Spa Resort " destinationId="9334" hotelLatitude="28.052960179" hotelLongitude="34.434811017" address="Peace Road, Nabq Bay, Sharm El Sheikh, South Sinai" zip="069" city="Sharm El Sheikh" countryCode="EG" destinationCode="SSH" stars="3" status="UpToDate" bestVal="0" providerId="2" uploaded="false"/><Hotel hotelId="1331905" hotelName="Royal Savoy Sharm El Sheikh " destinationId="9334" hotelLatitude="27.964423235" hotelLongitude="34.392434988" address="Soho Square" zip="" city="Sharm El Sheikh" countryCode="EG" destinationCode="SSH" stars="5" status="UpToDate" bestVal="0" providerId="2" uploaded="false"/><Hotel hotelId="1331054" hotelName="Savoy Sharm El Sheikh" destinationId="9334" hotelLatitude="27.961774000" hotelLongitude="34.397002000" address="Soho Square Sharm El Sheikh" zip="" city="Sharm El Sheikh" countryCode="EG" destinationCode="SSH" stars="5" status="UpToDate" bestVal="0" providerId="2" uploaded="false"/><Hotel hotelId="1432120" hotelName="Sheraton Sharm Hotel, Resort, Villas &amp; Spa" destinationId="9334" hotelLatitude="27.921600000" hotelLongitude="34.368100000" address="Al Pasha Coast" zip="99999" city="Sharm El Sheikh" countryCode="EG" destinationCode="SSH" stars="4.5" status="UpToDate" bestVal="0" providerId="2" uploaded="false"/><Hotel hotelId="1331059" hotelName="Sierra Sharm El Sheikh  " destinationId="9334" hotelLatitude="27.964425011" hotelLongitude="34.392434694" address="Soho Square" zip="" city="Sharm El Sheikh" countryCode="EG" destinationCode="SSH" stars="5" status="UpToDate" bestVal="0" providerId="2" uploaded="false"/><Hotel hotelId="1429671" hotelName="Sol Y Mar Naama Bay " destinationId="9334" hotelLatitude="27.915817500" hotelLongitude="34.329950500" address="Naama Bay, Sharm El Sheikh, South Sinai P.O.Box 312" zip="" city="Sharm El Sheikh" countryCode="EG" destinationCode="SSH" stars="4" status="UpToDate" bestVal="0" providerId="2" uploaded="false"/><Hotel hotelId="1221014" hotelName="Sol Y Mar Sharks Bay " destinationId="9334" hotelLatitude="27.963627000" hotelLongitude="34.404092000" address="2 B Entrance of Sharks Bay North Naama Bay Sharm El Sheikh 00328 South Sinai / Egypt" zip="" city="Sharm El Sheikh" countryCode="EG" destinationCode="SSH" stars="4" status="UpToDate" bestVal="0" providerId="2" uploaded="false"/><Hotel hotelId="1429120" hotelName="Sultan Gardens Resort - All Inclusive" destinationId="9334" hotelLatitude="27.944289000" hotelLongitude="34.383096000" address="Sharks Bay, Coast Road Qesm, South Sinai" zip="" city="Sharm El Sheikh" countryCode="EG" destinationCode="SSH" stars="5" status="UpToDate" bestVal="0" providerId="2" uploaded="false"/><Hotel hotelId="1328305" hotelName="SUNRISE GRAND SELECT ARABIAN BEACH" destinationId="9334" hotelLatitude="27.942585000" hotelLongitude="34.383429000" address="Sharks Bay, 86 Pyramisa Road" zip="00000" city="Sharm El Sheikh" countryCode="EG" destinationCode="SSH" stars="5" status="UpToDate" bestVal="0" providerId="2" uploaded="false"/><Hotel hotelId="1416299" hotelName="SUNRISE GRAND SELECT MONTEMARE RESORT" destinationId="9334" hotelLatitude="0.000000000" hotelLongitude="0.000000000" address="El Fanar Street, Hadabit Om El Sid" zip="46619" city="Sharm El Sheikh" countryCode="EG" destinationCode="SSH" stars="5" status="UpToDate" bestVal="0" providerId="2" uploaded="false"/><Hotel hotelId="1335219" hotelName="SUNRISE SELECT DIAMOND BEACH" destinationId="9334" hotelLatitude="0.000000000" hotelLongitude="0.000000000" address="Om El Sid Hill, Hadaba P\.O\. Box 256" zip="46619" city="Sharm El Sheikh" countryCode="EG" destinationCode="SSH" stars="5" status="UpToDate" bestVal="0" providerId="2" uploaded="false"/></Hotels></City><City name="South Sinai" elementType="3" destinationId="22362" provider="2" status="UpToDate" destinationCode="SSH" cityLatitude="" cityLongitude=""><Hotels><Hotel hotelId="1418834" hotelName="Royal Savoy Villas Sharm El Sheikh" destinationId="22362" hotelLatitude="27.962249131" hotelLongitude="34.395244770" address="SOHO Square, Sharm El Sheikh" zip="" city="South Sinai" countryCode="EG" destinationCode="SSH" stars="5" status="UpToDate" bestVal="0" providerId="2" uploaded="false"/></Hotels></City><City name="Taba" elementType="3" destinationId="9895" provider="2" status="UpToDate" destinationCode="TCP" cityLatitude="29.49999342154070" cityLongitude="34.88329922344000"><Hotels><Hotel hotelId="1431102" hotelName="Hilton Taba Resort &amp; Nelson Village" destinationId="9895" hotelLatitude="29.505607500" hotelLongitude="34.825634000" address="South Sinai Taba Beach" zip="46621" city="Taba" countryCode="EG" destinationCode="TCP" stars="5" status="UpToDate" bestVal="0" providerId="2" uploaded="false"/></Hotels></City></State></Country><Country name="Equatorial Guinea" elementType="7" destinationId="2000083" provider="2" status="UpToDate"><State name="" elementType="6" destinationId="0" provider="" status="UpToDate" StateShort=""><City name="Bata" elementType="3" destinationId="1513" provider="2" status="UpToDate" destinationCode="BSG" cityLatitude="1.86529200548851" cityLongitude="9.76436501291665"><Hotels><Hotel hotelId="1356528" hotelName="Ibis Bata" destinationId="1513" hotelLatitude="1.861158062" hotelLongitude="9.759389067" address="Paseo Maritimo" zip="" city="Bata" countryCode="GQ" destinationCode="BSG" stars="3" status="UpToDate" bestVal="0" providerId="2" uploaded="false"/></Hotels></City><City name="Malabo" elementType="3" destinationId="6241" provider="2" status="UpToDate" destinationCode="SSG" cityLatitude="3.75266601256368" cityLongitude="8.77815143733757"><Hotels><Hotel hotelId="1431080" hotelName="Hilton Malabo" destinationId="6241" hotelLatitude="3.752700000" hotelLongitude="8.774300000" address="Carretera del Aeropuerto Km 7 Bioke Norte" zip="000000" city="Malabo" countryCode="GQ" destinationCode="SSG" stars="4" status="UpToDate" bestVal="0" providerId="2" uploaded="false"/><Hotel hotelId="1356527" hotelName="Ibis Malabo" destinationId="6241" hotelLatitude="3.754409410" hotelLongitude="8.736598796" address="Malabo 2" zip="" city="Malabo" countryCode="GQ" destinationCode="SSG" stars="3" status="UpToDate" bestVal="0" providerId="2" uploaded="false"/><Hotel hotelId="1431484" hotelName="Sofitel Malabo Sipopo Le Golf" destinationId="6241" hotelLatitude="3.757933010" hotelLongitude="8.783461746" address="Zona Sipopo" zip="" city="Malabo" countryCode="GQ" destinationCode="SSG" stars="5" status="UpToDate" bestVal="0" providerId="2" uploaded="false"/></Hotels></City></State></Country><Country name="Ethiopia" elementType="7" destinationId="2000065" provider="2" status="UpToDate"><State name="" elementType="6" destinationId="0" provider="" status="UpToDate" StateShort=""><City name="Addis Ababa" elementType="3" destinationId="60" provider="2" status="UpToDate" destinationCode="ADD" cityLatitude="9.02275502566771" cityLongitude="38.74679572745770"><Hotels><Hotel hotelId="1418052" hotelName="Capital Hotel and Spa" destinationId="60" hotelLatitude="9.013299000" hotelLongitude="38.779924000" address="22 Mazzoria Haile Gebresellasie Street Bole Subcity" zip="251" city="Addis Ababa" countryCode="ET" destinationCode="ADD" stars="5" status="UpToDate" bestVal="0" providerId="2" uploaded="false"/><Hotel hotelId="1230230" hotelName="Harmony Hotel" destinationId="60" hotelLatitude="8.998517000" hotelLongitude="38.786287000" address="Nr Edna mall, Bole Medhanialem" zip="16319" city="Addis Ababa" countryCode="ET" destinationCode="ADD" stars="4" status="UpToDate" bestVal="0" providerId="2" uploaded="false"/><Hotel hotelId="1201997" hotelName="Hilton Addis Ababa hotel" destinationId="60" hotelLatitude="9.033300000" hotelLongitude="38.699900000" address="Menelik II Avenue" zip="1164" city="Addis Ababa" countryCode="ET" destinationCode="ADD" stars="4" status="UpToDate" bestVal="0" providerId="2" uploaded="false"/><Hotel hotelId="1224770" hotelName="Jupiter International Hotel Bole" destinationId="60" hotelLatitude="9.016378439" hotelLongitude="38.768222750" address="African Avenue " zip="110778" city="Addis Ababa" countryCode="ET" destinationCode="ADD" stars="4" status="UpToDate" bestVal="0" providerId="2" uploaded="false"/><Hotel hotelId="1412372" hotelName="Jupiter International Hotel Cazanchise" destinationId="60" hotelLatitude="9.016398518" hotelLongitude="38.768136732" address="Marshal Tito Street" zip="" city="Addis Ababa" countryCode="ET" destinationCode="ADD" stars="4" status="UpToDate" bestVal="0" providerId="2" uploaded="false"/><Hotel hotelId="1231605" hotelName="Sheraton Addis Hotel" destinationId="60" hotelLatitude="9.020401454" hotelLongitude="38.759197125" address="Taitu Street, PO Box 6002" zip="1" city="Addis Ababa" countryCode="ET" destinationCode="ADD" stars="5" status="UpToDate" bestVal="0" providerId="2" uploaded="false"/></Hotels></City></State></Country><Country name="Gambia" elementType="7" destinationId="2000080" provider="2" status="UpToDate"><State name="" elementType="6" destinationId="0" provider="" status="UpToDate" StateShort=""><City name="Serre Kunda" elementType="3" destinationId="17818" provider="2" status="UpToDate" destinationCode="BJL" cityLatitude="13.43996301286730" cityLongitude="-15.49100222627770"><Hotels><Hotel hotelId="1432112" hotelName="Sheraton Gambia Hotel Resort &amp; Spa" destinationId="17818" hotelLatitude="13.393000000" hotelLongitude="-16.760500000" address="Brufut Heights" zip="99999" city="Serre Kunda" countryCode="GM" destinationCode="BJL" stars="4.5" status="UpToDate" bestVal="0" providerId="2" uploaded="false"/></Hotels></City></State></Country><Country name="Ghana" elementType="7" destinationId="2000077" provider="2" status="UpToDate"><State name="" elementType="6" destinationId="0" provider="" status="UpToDate" StateShort=""><City name="Accra" elementType="3" destinationId="52" provider="2" status="UpToDate" destinationCode="ACC" cityLatitude="5.55858851968256" cityLongitude="-0.20095419722212"><Hotels><Hotel hotelId="1230454" hotelName="African Royal Beach Hotel" destinationId="52" hotelLatitude="5.562949737" hotelLongitude="-0.143999085" address="51 Beach Drive Nungua" zip="00233" city="Accra" countryCode="GH" destinationCode="ACC" stars="3" status="UpToDate" bestVal="0" providerId="2" uploaded="false"/><Hotel hotelId="1247844" hotelName="BEST WESTERN PREMIER Accra Airport Hotel" destinationId="52" hotelLatitude="5.604593000" hotelLongitude="-0.172069000" address="17 White Avenue P.O. Box Ct. 1570" zip="00000" city="Accra" countryCode="GH" destinationCode="ACC" stars="2.5" status="UpToDate" bestVal="0" providerId="2" uploaded="false"/><Hotel hotelId="1226662" hotelName="Novotel Accra City Centre" destinationId="52" hotelLatitude="5.553004816" hotelLongitude="-0.203941676" address="Barnes Road" zip="" city="Accra" countryCode="GH" destinationCode="ACC" stars="4" status="UpToDate" bestVal="0" providerId="2" uploaded="false"/><Hotel hotelId="1332873" hotelName="Ramada Resort Accra Coco Beach" destinationId="52" hotelLatitude="5.600000000" hotelLongitude="-0.066600000" address="Awi Koonaa Street" zip="000000" city="Accra" countryCode="GH" destinationCode="ACC" stars="2" status="UpToDate" bestVal="0" providerId="2" uploaded="false"/></Hotels></City></State></Country><Country name="Kenya" elementType="7" destinationId="2000108" provider="2" status="UpToDate"><State name="" elementType="6" destinationId="0" provider="" status="UpToDate" StateShort=""><City name="Masai Mara National Reserve" elementType="3" destinationId="22650" provider="2" status="UpToDate" destinationCode="NBO" cityLatitude="" cityLongitude=""><Hotels><Hotel hotelId="1356332" hotelName="Keekorok Lodge Masai Mara" destinationId="22650" hotelLatitude="-1.590701652" hotelLongitude="35.236187102" address="C14 Keekorok Game Reserve" zip="" city="Masai Mara National Reserve" countryCode="KE" destinationCode="NBO" stars="5" status="UpToDate" bestVal="0" providerId="2" uploaded="false"/></Hotels></City><City name="Mombasa" elementType="3" destinationId="6789" provider="2" status="UpToDate" destinationCode="MBA" cityLatitude="-4.05302059310723" cityLongitude="39.67286351097930"><Hotels><Hotel hotelId="1418831" hotelName="Halgan Villas Palace" destinationId="6789" hotelLatitude="-4.036170000" hotelLongitude="39.711009000" address="Mt. Kenya Road" zip="80100" city="Mombasa" countryCode="KE" destinationCode="MBA" stars="2" status="UpToDate" bestVal="0" providerId="2" uploaded="false"/><Hotel hotelId="1414735" hotelName="Mombasa Continental Resort" destinationId="6789" hotelLatitude="-3.971086000" hotelLongitude="39.751939000" address="Shanzu Beach, Off Mombasa Malindi Road" zip="" city="Mombasa" countryCode="KE" destinationCode="MBA" stars="5" status="UpToDate" bestVal="0" providerId="2" uploaded="false"/></Hotels></City><City name="Nairobi" elementType="3" destinationId="7089" provider="2" status="UpToDate" destinationCode="NBO" cityLatitude="-1.28528226628967" cityLongitude="36.81543338113700"><Hotels><Hotel hotelId="1440674" hotelName="Best Western Premier Nairobi" destinationId="7089" hotelLatitude="-1.293640000" hotelLongitude="36.795185000" address="Argwings Kodhek Road, Hurlingham" zip="1939-00606" city="Nairobi" countryCode="KE" destinationCode="NBO" stars="4" status="UpToDate" bestVal="0" providerId="2" uploaded="false"/><Hotel hotelId="1227848" hotelName="Crowne Plaza Nairobi" destinationId="7089" hotelLatitude="-1.300298380" hotelLongitude="36.815684483" address="Kenya Road, Upper Hill" zip=" 00100 " city="Nairobi" countryCode="KE" destinationCode="NBO" stars="5" status="UpToDate" bestVal="0" providerId="2" uploaded="false"/><Hotel hotelId="1414910" hotelName="DusitD2 Nairobi" destinationId="7089" hotelLatitude="-1.270129105" hotelLongitude="36.802881693" address="14 Riverside, off Riverside Drive" zip="" city="Nairobi" countryCode="KE" destinationCode="NBO" stars="3" status="UpToDate" bestVal="0" providerId="2" uploaded="false"/><Hotel hotelId="1227913" hotelName="Fairmont The Norfolk" destinationId="7089" hotelLatitude="-1.278025597" hotelLongitude="36.816483761" address="Harry Thuku Road, PO Box 58581" zip="00100" city="Nairobi" countryCode="KE" destinationCode="NBO" stars="5" status="UpToDate" bestVal="0" providerId="2" uploaded="false"/><Hotel hotelId="1202261" hotelName="Hilton Nairobi hotel" destinationId="7089" hotelLatitude="-1.282400000" hotelLongitude="36.812300000" address="Mama Ngina Street" zip="00100" city="Nairobi" countryCode="KE" destinationCode="NBO" stars="4" status="UpToDate" bestVal="0" providerId="2" uploaded="false"/><Hotel hotelId="1229190" hotelName="Intercontinental Nairobi" destinationId="7089" hotelLatitude="-1.287957331" hotelLongitude="36.819311381" address="City Hall Way, PO. Box 30353" zip="00200" city="Nairobi" countryCode="KE" destinationCode="NBO" stars="5" status="UpToDate" bestVal="0" providerId="2" uploaded="false"/><Hotel hotelId="1445943" hotelName="La Maison Royale Hotel" destinationId="7089" hotelLatitude="-1.264799787" hotelLongitude="36.808140458" address="09 Mogotio Road, Westlands " zip="" city="Nairobi" countryCode="KE" destinationCode="NBO" stars="4" status="UpToDate" bestVal="0" providerId="2" uploaded="false"/></Hotels></City><City name="Naivasha" elementType="3" destinationId="26289" provider="2" status="UpToDate" destinationCode="NBO" cityLatitude="" cityLongitude=""><Hotels><Hotel hotelId="1356331" hotelName="Kiboko Luxury Camp Naivasha" destinationId="26289" hotelLatitude="-0.769706000" hotelLongitude="36.421051000" address="Moi South Lake Road" zip="TW92P4" city="Naivasha" countryCode="KE" destinationCode="NBO" stars="4" status="UpToDate" bestVal="0" providerId="2" uploaded="false"/><Hotel hotelId="1356327" hotelName="Lake Naivasha Country Club" destinationId="26289" hotelLatitude="-1.242613000" hotelLongitude="36.770618000" address="South Lake Road" zip="00100" city="Naivasha" countryCode="KE" destinationCode="NBO" stars="4" status="UpToDate" bestVal="0" providerId="2" uploaded="false"/></Hotels></City><City name="Nakuru" elementType="3" destinationId="7099" provider="2" status="UpToDate" destinationCode="NUU" cityLatitude="-0.27982383231128" cityLongitude="36.06892102561130"><Hotels><Hotel hotelId="1356330" hotelName="Lake Baringo Club" destinationId="7099" hotelLatitude="-0.303098800" hotelLongitude="36.080026000" address="Kabarney Road" zip="TW92P4" city="Nakuru" countryCode="KE" destinationCode="NUU" stars="3" status="UpToDate" bestVal="0" providerId="2" uploaded="false"/></Hotels></City><City name="Nyeri" elementType="3" destinationId="7471" provider="2" status="UpToDate" destinationCode="NYE" cityLatitude="-0.41685781090754" cityLongitude="36.95100580597260"><Hotels><Hotel hotelId="1439943" hotelName="Aberdare Country Club" destinationId="7471" hotelLatitude="-0.325001454" hotelLongitude="36.929651929" address="Near Aberdare National Park, Kenya" zip="48992-00100" city="Nyeri" countryCode="KE" destinationCode="NYE" stars="5" status="UpToDate" bestVal="0" providerId="2" uploaded="false"/></Hotels></City></State></Country><Country name="Libyan Arab Jamahiriya" elementType="7" destinationId="2000129" provider="2" status="UpToDate"><State name="" elementType="6" destinationId="0" provider="" status="UpToDate" StateShort=""><City name="Tripoli" elementType="3" destinationId="10363" provider="2" status="UpToDate" destinationCode="TIP" cityLatitude="32.87118355056220" cityLongitude="13.17998552248910"><Hotels><Hotel hotelId="1231188" hotelName="Assafi Hotel" destinationId="10363" hotelLatitude="32.871610437" hotelLongitude="13.179984669" address="Rue Omar Al Mokhtar" zip="12202" city="Tripoli" countryCode="LY" destinationCode="TIP" stars="3" status="UpToDate" bestVal="0" providerId="2" uploaded="false"/></Hotels></City></State></Country><Country name="Mauritius" elementType="7" destinationId="2000145" provider="2" status="UpToDate"><State name="" elementType="6" destinationId="0" provider="" status="UpToDate" StateShort=""><City name="Flic-En-Flac" elementType="3" destinationId="22561" provider="2" status="UpToDate" destinationCode="MRU" cityLatitude="" cityLongitude=""><Hotels><Hotel hotelId="1430990" hotelName="Hilton Mauritius Resort &amp; Spa" destinationId="22561" hotelLatitude="-20.308400000" hotelLongitude="57.367000000" address="Coastal road, Wolmar" zip="000000" city="Flic-En-Flac" countryCode="MU" destinationCode="MRU" stars="5" status="UpToDate" bestVal="0" providerId="2" uploaded="false"/></Hotels></City><City name="Le Morne" elementType="3" destinationId="22613" provider="2" status="UpToDate" destinationCode="MRU" cityLatitude="" cityLongitude=""><Hotels><Hotel hotelId="1440800" hotelName="The St. Regis Mauritius Resort" destinationId="22613" hotelLatitude="-20.461400000" hotelLongitude="57.310300000" address="Le Morne Peninsula, Mauritius" zip="000000" city="Le Morne" countryCode="MU" destinationCode="MRU" stars="5" status="UpToDate" bestVal="0" providerId="2" uploaded="false"/></Hotels></City><City name="Mauritius" elementType="3" destinationId="6509" provider="2" status="UpToDate" destinationCode="MRU" cityLatitude="-20.21999981135200" cityLongitude="57.58897904358350"><CityLocation name="" elementType="2" destinationId="22769" provider="2" status="UpToDate" location="Le Morne" destinationCode="MRU" city="Mauritius" cityDestinationId="6509"><Hotels><Hotel hotelId="1338642" hotelName="Sofitel SO Mauritius" destinationId="22769" hotelLatitude="-20.509859000" hotelLongitude="57.435019000" address="Beau Champ" zip="" city="Mauritius" location="Le Morne" countryCode="MU" destinationCode="MRU" stars="5" status="UpToDate" bestVal="0" providerId="2" uploaded="false"/></Hotels></CityLocation><CityLocation name="" elementType="2" destinationId="22770" provider="2" status="UpToDate" location="Pointe aux Piments" destinationCode="MRU" city="Mauritius" cityDestinationId="6509"><Hotels><Hotel hotelId="1035959" hotelName="Oberoi Mauritius" destinationId="22770" hotelLatitude="-20.075058857" hotelLongitude="57.514114661" address="Turtle Bay, Pointe aux Piments" zip="1" city="Mauritius" location="Pointe aux Piments" countryCode="MU" destinationCode="MRU" stars="5" status="UpToDate" bestVal="0" providerId="2" uploaded="false"/><Hotel hotelId="1230332" hotelName="Veranda Pointe Aux Biches" destinationId="22770" hotelLatitude="-20.047070000" hotelLongitude="57.529194000" address="Route Royale, Pointe aux Piments" zip="742CU001" city="Mauritius" location="Pointe aux Piments" countryCode="MU" destinationCode="MRU" stars="3" status="UpToDate" bestVal="0" providerId="2" uploaded="false"/></Hotels></CityLocation><CityLocation name="" elementType="2" destinationId="22772" provider="2" status="UpToDate" location="Wolmar" destinationCode="MRU" city="Mauritius" cityDestinationId="6509"><Hotels><Hotel hotelId="1229053" hotelName="Sofitel Mauritius L'Imperial Resort and Spa" destinationId="22772" hotelLatitude="-20.333681761" hotelLongitude="57.358932495" address="Wolmar, 0 Flic en Flac" zip="1144" city="Mauritius" location="Wolmar" countryCode="MU" destinationCode="MRU" stars="4" status="UpToDate" bestVal="0" providerId="2" uploaded="false"/><Hotel hotelId="1313994" hotelName="Hilton Mauritius Resort &amp; Spa" destinationId="22772" hotelLatitude="-20.308633069" hotelLongitude="57.366935908" address="Flic en Flac" zip="0000" city="Mauritius" location="Wolmar" countryCode="MU" destinationCode="MRU" stars="5" status="UpToDate" bestVal="0" providerId="2" uploaded="false"/><Hotel hotelId="1341747" hotelName="Maradiva Villas Resort &amp; Spa" destinationId="22772" hotelLatitude="-20.298153763" hotelLongitude="57.363289915" address="Wolmar, Flic en Flac," zip="" city="Mauritius" location="Wolmar" countryCode="MU" destinationCode="MRU" stars="5" status="UpToDate" bestVal="0" providerId="2" uploaded="false"/></Hotels></CityLocation><CityLocation name="" elementType="2" destinationId="22773" provider="2" status="UpToDate" location="Belle Mare" destinationCode="MRU" city="Mauritius" cityDestinationId="6509"><Hotels><Hotel hotelId="1232694" hotelName="LUX Belle Mare" destinationId="22773" hotelLatitude="-20.198432824" hotelLongitude="57.780007063" address="Belle Mare" zip="" city="Mauritius" location="Belle Mare" countryCode="MU" destinationCode="MRU" stars="5" status="UpToDate" bestVal="0" providerId="2" uploaded="false"/><Hotel hotelId="1233144" hotelName="One &amp; Only Le Saint Geran" destinationId="22773" hotelLatitude="-20.160139000" hotelLongitude="57.757004000" address="Pointe De Flacq" zip="" city="Mauritius" location="Belle Mare" countryCode="MU" destinationCode="MRU" stars="5" status="UpToDate" bestVal="0" providerId="2" uploaded="false"/><Hotel hotelId="1299410" hotelName="Veranda Palmar Beach" destinationId="22773" hotelLatitude="-20.200899860" hotelLongitude="57.783086000" address="Coastal Road, Belle Mare" zip="742CU001" city="Mauritius" location="Belle Mare" countryCode="MU" destinationCode="MRU" stars="3" status="UpToDate" bestVal="0" providerId="2" uploaded="false"/></Hotels></CityLocation><CityLocation name="" elementType="2" destinationId="22774" provider="2" status="UpToDate" location="Grand Baie" destinationCode="MRU" city="Mauritius" cityDestinationId="6509"><Hotels><Hotel hotelId="1232699" hotelName="Merville Beach Grand Baie" destinationId="22774" hotelLatitude="-20.011439901" hotelLongitude="57.584640598" address="Merville Beach" zip="1" city="Mauritius" location="Grand Baie" countryCode="MU" destinationCode="MRU" stars="3" status="UpToDate" bestVal="0" providerId="2" uploaded="false"/><Hotel hotelId="1230176" hotelName="Veranda Grand Baie" destinationId="22774" hotelLatitude="-20.009044997" hotelLongitude="57.578809729" address="Royal Road, Grand Bay" zip="742CU001" city="Mauritius" location="Grand Baie" countryCode="MU" destinationCode="MRU" stars="3" status="UpToDate" bestVal="0" providerId="2" uploaded="false"/></Hotels></CityLocation><CityLocation name="" elementType="2" destinationId="22775" provider="2" status="UpToDate" location="Grand Gaube" destinationCode="MRU" city="Mauritius" cityDestinationId="6509"><Hotels><Hotel hotelId="1232695" hotelName="LUX Grand Gaube" destinationId="22775" hotelLatitude="-20.002386960" hotelLongitude="57.659748085" address="Grand Gaube" zip="" city="Mauritius" location="Grand Gaube" countryCode="MU" destinationCode="MRU" stars="5" status="UpToDate" bestVal="0" providerId="2" uploaded="false"/><Hotel hotelId="1299426" hotelName="Veranda Paul &amp; Virginie - Adults Only" destinationId="22775" hotelLatitude="-20.006600605" hotelLongitude="57.668191425" address="Route Royale, Grand Gaube" zip="742CU001" city="Mauritius" location="Grand Gaube" countryCode="MU" destinationCode="MRU" stars="3" status="UpToDate" bestVal="0" providerId="2" uploaded="false"/></Hotels></CityLocation><CityLocation name="" elementType="2" destinationId="22776" provider="2" status="UpToDate" location="Trou aux Biches" destinationCode="MRU" city="Mauritius" cityDestinationId="6509"><Hotels><Hotel hotelId="1230361" hotelName="Le Palmiste Resort &amp; Spa, Mauritius" destinationId="22776" hotelLatitude="-20.050932388" hotelLongitude="57.523727417" address="Coastal Road, Trou Aux Biches" zip="" city="Mauritius" location="Trou aux Biches" countryCode="MU" destinationCode="MRU" stars="3" status="UpToDate" bestVal="0" providerId="2" uploaded="false"/></Hotels></CityLocation><CityLocation name="" elementType="2" destinationId="22779" provider="2" status="UpToDate" location="Belle Ombre" destinationCode="MRU" city="Mauritius" cityDestinationId="6509"><Hotels><Hotel hotelId="1232700" hotelName="Tamassa  All Inclusive Resort" destinationId="22779" hotelLatitude="-20.511304000" hotelLongitude="57.423778000" address="Bel Ombre" zip="" city="Mauritius" location="Belle Ombre" countryCode="MU" destinationCode="MRU" stars="4" status="UpToDate" bestVal="0" providerId="2" uploaded="false"/><Hotel hotelId="1230194" hotelName="Heritage Awali" destinationId="22779" hotelLatitude="-20.508062000" hotelLongitude="57.412554000" address="Domaine de Bel Ombre" zip="742CU001" city="Mauritius" location="Belle Ombre" countryCode="MU" destinationCode="MRU" stars="4" status="UpToDate" bestVal="0" providerId="2" uploaded="false"/><Hotel hotelId="1230171" hotelName="Heritage Le Telfair Golf and Spa Resort" destinationId="22779" hotelLatitude="-20.506209286" hotelLongitude="57.409679890" address="Domaine de Bel Ombre" zip="742CU001" city="Mauritius" location="Belle Ombre" countryCode="MU" destinationCode="MRU" stars="5" status="UpToDate" bestVal="0" providerId="2" uploaded="false"/><Hotel hotelId="1414016" hotelName="Heritage The Villas" destinationId="22779" hotelLatitude="-20.503735563" hotelLongitude="57.416540737" address="B9 Domaine de Bel Ombre" zip="31803" city="Mauritius" location="Belle Ombre" countryCode="MU" destinationCode="MRU" stars="5" status="UpToDate" bestVal="0" providerId="2" uploaded="false"/><Hotel hotelId="1232832" hotelName="Outrigger Mauritius Resorts and Spa" destinationId="22779" hotelLatitude="-20.511476476" hotelLongitude="57.416894467" address="Allee des cocotiers, Bel Ombre" zip="61010" city="Mauritius" location="Belle Ombre" countryCode="MU" destinationCode="MRU" stars="5" status="UpToDate" bestVal="0" providerId="2" uploaded="false"/></Hotels></CityLocation><CityLocation name="" elementType="2" destinationId="26224" provider="2" status="UpToDate" location="Pereybere" destinationCode="MRU" city="Mauritius" cityDestinationId="6509"><Hotels><Hotel hotelId="1229282" hotelName="Pereybere Hotel &amp; Apartments" destinationId="26224" hotelLatitude="-19.993741000" hotelLongitude="57.591974000" address="Royal Road, Pereybere" zip="30546" city="Mauritius" location="Pereybere" countryCode="MU" destinationCode="MRU" stars="3" status="UpToDate" bestVal="0" providerId="2" uploaded="false"/><Hotel hotelId="1230101" hotelName="Hibiscus Beach Resort &amp; Spa" destinationId="26224" hotelLatitude="-19.992475780" hotelLongitude="57.592126067" address="Coastal Road" zip="" city="Mauritius" location="Pereybere" countryCode="MU" destinationCode="MRU" stars="3" status="UpToDate" bestVal="0" providerId="2" uploaded="false"/></Hotels></CityLocation><Hotels><Hotel hotelId="1341338" hotelName="Aanari Hotel &amp; Spa" destinationId="6509" hotelLatitude="-20.279345291" hotelLongitude="57.367945010" address="Royal Road" zip="230" city="Mauritius" countryCode="MU" destinationCode="MRU" stars="3" status="UpToDate" bestVal="0" providerId="2" uploaded="false"/><Hotel hotelId="1425851" hotelName="Centara Grand Azuri Residence" destinationId="6509" hotelLatitude="-20.103936614" hotelLongitude="57.729893085" address="Coastal Road, Haute Rive, Riviere du Rempart, " zip="" city="Mauritius" countryCode="MU" destinationCode="MRU" stars="5" status="UpToDate" bestVal="0" providerId="2" uploaded="false"/><Hotel hotelId="1313228" hotelName="LUX Le Morne" destinationId="6509" hotelLatitude="-20.456056458" hotelLongitude="57.311511085" address="Le Morne Plage" zip="" city="Mauritius" countryCode="MU" destinationCode="MRU" stars="4" status="UpToDate" bestVal="0" providerId="2" uploaded="false"/><Hotel hotelId="1341352" hotelName="Radisson Blu Azuri Resort &amp; Spa" destinationId="6509" hotelLatitude="-20.103379000" hotelLongitude="57.729567000" address="Azuri Complex, Coastal Road, Roches Noires" zip="" city="Mauritius" countryCode="MU" destinationCode="MRU" stars="5" status="UpToDate" bestVal="0" providerId="2" uploaded="false"/><Hotel hotelId="1341245" hotelName="Radisson Blu Poste Lafayette Resort &amp; Spa" destinationId="6509" hotelLatitude="-20.113687000" hotelLongitude="57.749664000" address="Coastal Road, Poste Lafayette" zip="" city="Mauritius" countryCode="MU" destinationCode="MRU" stars="4" status="UpToDate" bestVal="0" providerId="2" uploaded="false"/><Hotel hotelId="1357225" hotelName="Sands Suites Resort &amp; Spa" destinationId="6509" hotelLatitude="-20.316420181" hotelLongitude="57.371784273" address="Wolmar, Flic en Flac Road" zip="" city="Mauritius" countryCode="MU" destinationCode="MRU" stars="4" status="UpToDate" bestVal="0" providerId="2" uploaded="false"/><Hotel hotelId="1432111" hotelName="The Westin Turtle Bay Resort &amp; Spa, Mauritius" destinationId="6509" hotelLatitude="-20.081860000" hotelLongitude="57.512813000" address="Balaclava" zip="99999" city="Mauritius" countryCode="MU" destinationCode="MRU" stars="4.5" status="UpToDate" bestVal="0" providerId="2" uploaded="false"/></Hotels></City></State></Country><Country name="Morocco" elementType="7" destinationId="2000130" provider="2" status="UpToDate"><State name="" elementType="6" destinationId="0" provider="" status="UpToDate" StateShort=""><City name="Agadir" elementType="3" destinationId="74" provider="2" status="UpToDate" destinationCode="AGA" cityLatitude="30.41823722336800" cityLongitude="-9.61117838398525"><Hotels><Hotel hotelId="1341353" hotelName="Agadir Les Omayades" destinationId="74" hotelLatitude="30.407101310" hotelLongitude="-9.594676508" address="Boulevard du 20 Aout, Secteur Balenaire" zip="80000" city="Agadir" countryCode="MA" destinationCode="AGA" stars="4" status="UpToDate" bestVal="0" providerId="2" uploaded="false"/><Hotel hotelId="1336061" hotelName="ANEZI TOWER HOTEL AND APARTMENTS" destinationId="74" hotelLatitude="30.416676000" hotelLongitude="-9.600151000" address="Boulevard Mohamed V" zip="B.P. 29" city="Agadir" countryCode="MA" destinationCode="AGA" stars="4" status="UpToDate" bestVal="0" providerId="2" uploaded="false"/><Hotel hotelId="1322412" hotelName="Atlantic Palace Golf Thalasso &amp; Casino Resort" destinationId="74" hotelLatitude="30.405239000" hotelLongitude="-9.597682000" address="Secteur Balneaire Et Touristique BP 194" zip="80000" city="Agadir" countryCode="MA" destinationCode="AGA" stars="5" status="UpToDate" bestVal="0" providerId="2" uploaded="false"/><Hotel hotelId="1248694" hotelName="Best Western Odyssee Park Hotel" destinationId="74" hotelLatitude="30.418500446" hotelLongitude="-9.601940122" address="Boulevard Mohamed V " zip="80000" city="Agadir" countryCode="MA" destinationCode="AGA" stars="2.5" status="UpToDate" bestVal="0" providerId="2" uploaded="false"/><Hotel hotelId="1413681" hotelName="Blue Sea Hotel Le Tivoli" destinationId="74" hotelLatitude="30.407765350" hotelLongitude="-9.595967440" address="Av du 20 Aout" zip="80000" city="A