<s:Envelope xmlns:s="http://schemas.xmlsoap.org/soap/envelope/"><s:Body xmlns:xsi="http://www.w3.org/2001/XMLSchema-instance" xmlns:xsd="http://www.w3.org/2001/XMLSchema"><HotelsByDestinationResponse xmlns="http://touricoholidays.com/WSDestinations/2008/08/DataContracts"><DestinationResult Version="9" Culture="en_US" ResultNum="1" ServerTime="11/24/2015 3:06:54 AM"><Continent name="South America/Caribbean" elementType="8" destinationId="1000003" provider="2;39" status="UpToDate"><Country name="Argentina" elementType="7" destinationId="2000010" provider="2;39" status="UpToDate"><State name="Buenos Aires" elementType="6" destinationId="4000051" provider="2;39" status="UpToDate" StateShort="BA"><City name="Buenos Aires" elementType="3" destinationId="2080" provider="2;39" status="UpToDate" destinationCode="BUE" cityLatitude="-35.62998233369500" cityLongitude="-65.15900064411360"><CityLocation name="" elementType="2" destinationId="19256" provider="2" status="UpToDate" location="Puerto Madero" destinationCode="BUE" city="Buenos Aires" cityDestinationId="2080"><Hotels><Hotel hotelId="1035289" hotelName="Faena Hotel Buenos Aires" destinationId="19256" hotelLatitude="-34.613560800" hotelLongitude="-58.361897400" address="Martha Salotti 445" zip="C1107CMB" city="Buenos Aires" location="Puerto Madero" state="Buenos Aires" stateCode="BA" countryCode="AR" destinationCode="BUE" stars="5" status="UpToDate" bestVal="0" providerId="2" uploaded="false"/><Hotel hotelId="1034978" hotelName="Hotel Madero Buenos Aires" destinationId="19256" hotelLatitude="-34.617031798" hotelLongitude="-58.362357169" address="Rosario Vera Penaloza 360 Dique 2 Puerto Madero" zip="C1107CLA" city="Buenos Aires" location="Puerto Madero" state="Buenos Aires" stateCode="BA" countryCode="AR" destinationCode="BUE" stars="5" status="UpToDate" bestVal="0" providerId="2" uploaded="false"/><Hotel hotelId="1040927" hotelName="Hilton Buenos Aires" destinationId="19256" hotelLatitude="-34.605260000" hotelLongitude="-58.363698500" address="Macacha Guemes 351" zip="C1106BKG" city="Buenos Aires" location="Puerto Madero" state="Buenos Aires" stateCode="BA" countryCode="AR" destinationCode="BUE" stars="5" status="UpToDate" bestVal="0" providerId="2" uploaded="false"/><Hotel hotelId="12573" hotelName="Holiday Inn Express Puerto Madero" destinationId="19256" hotelLatitude="-34.598966785" hotelLongitude="-58.371144533" address="Avenida Leandro N Alem 770" zip="C1001AAP" city="Buenos Aires" location="Puerto Madero" state="Buenos Aires" stateCode="BA" countryCode="AR" destinationCode="BUE" stars="4" status="UpToDate" bestVal="0" providerId="2" uploaded="false"/><Hotel hotelId="1227839" hotelName="Unique Art Madero" destinationId="19256" hotelLatitude="-34.615685200" hotelLongitude="-58.367384800" address="Chile 80 - Puerto Madero" zip="1201" city="Buenos Aires" location="Puerto Madero" state="Buenos Aires" stateCode="BA" countryCode="AR" destinationCode="BUE" stars="4" status="UpToDate" bestVal="0" providerId="2" uploaded="false"/></Hotels></CityLocation><CityLocation name="" elementType="2" destinationId="19966" provider="2" status="UpToDate" location="Belgrano" destinationCode="BUE" city="Buenos Aires" cityDestinationId="2080"><Hotels><Hotel hotelId="1251552" hotelName="Argenta Suites Belgrano" destinationId="19966" hotelLatitude="-34.564795000" hotelLongitude="-58.455854000" address="Ciudad de la Paz 1868" zip="" city="Buenos Aires" location="Belgrano" state="Buenos Aires" stateCode="BA" countryCode="AR" destinationCode="BUE" stars="4" status="UpToDate" bestVal="0" providerId="2" uploaded="false"/><Hotel hotelId="1215600" hotelName="Cristal Palace Hotel" destinationId="19966" hotelLatitude="-34.558407000" hotelLongitude="-58.461192000" address="Ciudad de la Paz 2550" zip="C1428CPR" city="Buenos Aires" location="Belgrano" state="Buenos Aires" stateCode="BA" countryCode="AR" destinationCode="BUE" stars="4" status="UpToDate" bestVal="0" providerId="2" uploaded="false"/><Hotel hotelId="1214012" hotelName="Ker Belgrano Hotel &amp; Spa" destinationId="19966" hotelLatitude="-34.555601400" hotelLongitude="-58.460688000" address="Vuelta De Obligado 2727" zip="C1428ADS" city="Buenos Aires" location="Belgrano" state="Buenos Aires" stateCode="BA" countryCode="AR" destinationCode="BUE" stars="4" status="UpToDate" bestVal="0" providerId="2" uploaded="false"/><Hotel hotelId="1205169" hotelName="Sures Belgrano Suites" destinationId="19966" hotelLatitude="-34.555204484" hotelLongitude="-58.463959694" address="Ciudad De La Paz 2969" zip="1428" city="Buenos Aires" location="Belgrano" state="Buenos Aires" stateCode="BA" countryCode="AR" destinationCode="BUE" stars="3" status="UpToDate" bestVal="0" providerId="2" uploaded="false"/></Hotels></CityLocation><CityLocation name="" elementType="2" destinationId="19967" provider="2" status="UpToDate" location="Urquiza" destinationCode="BUE" city="Buenos Aires" cityDestinationId="2080"><Hotels><Hotel hotelId="1218120" hotelName="Ker Urquiza Hotel &amp; Suites" destinationId="19967" hotelLatitude="-34.572946700" hotelLongitude="-58.486156300" address="Diaz Colodrero 2513" zip="C1421BZC" city="Buenos Aires" location="Urquiza" state="Buenos Aires" stateCode="BA" countryCode="AR" destinationCode="BUE" stars="3" status="UpToDate" bestVal="0" providerId="2" uploaded="false"/></Hotels></CityLocation><CityLocation name="" elementType="2" destinationId="19968" provider="2" status="UpToDate" location="Recoleta" destinationCode="BUE" city="Buenos Aires" cityDestinationId="2080"><Hotels><Hotel hotelId="1034620" hotelName="Alvear Palace Hotel" destinationId="19968" hotelLatitude="-34.587698200" hotelLongitude="-58.389085100" address="Avenida Alvear 1891" zip="C1129AAA" city="Buenos Aires" location="Recoleta" state="Buenos Aires" stateCode="BA" countryCode="AR" destinationCode="BUE" stars="5" status="UpToDate" bestVal="0" providerId="2" uploaded="false"/><Hotel hotelId="1413549" hotelName="Serena Hotel Buenos Aires" destinationId="19968" hotelLatitude="-34.590542383" hotelLongitude="-58.383979775" address="Libertad 1617" zip="C1016ABG" city="Buenos Aires" location="Recoleta" state="Buenos Aires" stateCode="BA" countryCode="AR" destinationCode="BUE" stars="4" status="UpToDate" bestVal="0" providerId="2" uploaded="false"/><Hotel hotelId="1215939" hotelName="Howard Johnson Hotel Boutique Recoleta" destinationId="19968" hotelLatitude="-34.591424422" hotelLongitude="-58.396496773" address="Peña 2049" zip="C1126ABA" city="Buenos Aires" location="Recoleta" state="Buenos Aires" stateCode="BA" countryCode="AR" destinationCode="BUE" stars="4" status="UpToDate" bestVal="0" providerId="2" uploaded="false"/><Hotel hotelId="1214205" hotelName="The Brick Hotel Buenos Aires by MGallery" destinationId="19968" hotelLatitude="-34.589387400" hotelLongitude="-58.384007800" address="Posadas 1232" zip="C1011ABF" city="Buenos Aires" location="Recoleta" state="Buenos Aires" stateCode="BA" countryCode="AR" destinationCode="BUE" stars="5" status="UpToDate" bestVal="0" providerId="2" uploaded="false"/><Hotel hotelId="11077" hotelName="525 Impala Hotel" destinationId="19968" hotelLatitude="-34.594171800" hotelLongitude="-58.384400300" address="Libertad 1215" zip="C1012AAY" city="Buenos Aires" location="Recoleta" state="Buenos Aires" stateCode="BA" countryCode="AR" destinationCode="BUE" stars="3" status="UpToDate" bestVal="0" providerId="2" uploaded="false"/><Hotel hotelId="1031244" hotelName="Loi Suites Recoleta Hotel" destinationId="19968" hotelLatitude="-34.589022027" hotelLongitude="-58.392280340" address="Vicente Lopez 1955" zip="C1128ACC" city="Buenos Aires" location="Recoleta" state="Buenos Aires" stateCode="BA" countryCode="AR" destinationCode="BUE" stars="4" status="UpToDate" bestVal="0" providerId="2" uploaded="false"/><Hotel hotelId="1414727" hotelName="Cyan Recoleta Hotel " destinationId="19968" hotelLatitude="-34.588814500" hotelLongitude="-58.392647100" address="Junin 1743 " zip="1113" city="Buenos Aires" location="Recoleta" state="Buenos Aires" stateCode="BA" countryCode="AR" destinationCode="BUE" stars="4" status="UpToDate" bestVal="0" providerId="2" uploaded="false"/><Hotel hotelId="1212959" hotelName="Etoile Hotel" destinationId="19968" hotelLatitude="-34.587955353" hotelLongitude="-58.391135720" address="Pte. M. Ortiz 1835" zip="1113" city="Buenos Aires" location="Recoleta" state="Buenos Aires" stateCode="BA" countryCode="AR" destinationCode="BUE" stars="4" status="UpToDate" bestVal="0" providerId="2" uploaded="false"/><Hotel hotelId="1214797" hotelName="Alta Piazza Apartment" destinationId="19968" hotelLatitude="-34.584245805" hotelLongitude="-58.399569519" address="Jose Leon Pagano 2634" zip="1425" city="Buenos Aires" location="Recoleta" state="Buenos Aires" stateCode="BA" countryCode="AR" destinationCode="BUE" stars="3.7" status="UpToDate" bestVal="0" providerId="2" uploaded="false"/><Hotel hotelId="1215878" hotelName="Americas Towers" destinationId="19968" hotelLatitude="-34.596071600" hotelLongitude="-58.384352300" address="Libertad 1070" zip="C1012AAV" city="Buenos Aires" location="Recoleta" state="Buenos Aires" stateCode="BA" countryCode="AR" destinationCode="BUE" stars="4" status="UpToDate" bestVal="0" providerId="2" uploaded="false"/><Hotel hotelId="1426884" hotelName="Apartamentos Rent In Buenos Aires " destinationId="19968" hotelLatitude="-34.592626000" hotelLongitude="-58.384948000" address="Juncal 1230" zip="1062" city="Buenos Aires" location="Recoleta" state="Buenos Aires" stateCode="BA" countryCode="AR" destinationCode="BUE" stars="3" status="UpToDate" bestVal="0" providerId="2" uploaded="false"/><Hotel hotelId="1040092" hotelName="Ayres de Recoleta" destinationId="19968" hotelLatitude="-34.588377255" hotelLongitude="-58.394383192" address="Jose E. Uriburu 1756" zip="c1114aat" city="Buenos Aires" location="Recoleta" state="Buenos Aires" stateCode="BA" countryCode="AR" destinationCode="BUE" stars="4" status="UpToDate" bestVal="0" providerId="2" uploaded="false"/><Hotel hotelId="1211615" hotelName="Ayres de Recoleta Libertad" destinationId="19968" hotelLatitude="-34.593149164" hotelLongitude="-58.384304172" address="Libertad 1283" zip="1125" city="Buenos Aires" location="Recoleta" state="Buenos Aires" stateCode="BA" countryCode="AR" destinationCode="BUE" stars="3.7" status="UpToDate" bestVal="0" providerId="2" uploaded="false"/><Hotel hotelId="1213939" hotelName="Ayres de Recoleta Plaza" destinationId="19968" hotelLatitude="-34.588646100" hotelLongitude="-58.391699700" address="Guido 1980" zip="C1114AAT" city="Buenos Aires" location="Recoleta" state="Buenos Aires" stateCode="BA" countryCode="AR" destinationCode="BUE" stars="4" status="UpToDate" bestVal="0" providerId="2" uploaded="false"/><Hotel hotelId="1429555" hotelName="Babel Recoleta" destinationId="19968" hotelLatitude="-34.596345784" hotelLongitude="-58.391849549" address="Rodriguez Peña 1063" zip="1020" city="Buenos Aires" location="Recoleta" state="Buenos Aires" stateCode="BA" countryCode="AR" destinationCode="BUE" stars="4" status="UpToDate" bestVal="0" providerId="2" uploaded="false"/><Hotel hotelId="1031471" hotelName="Bel Air Hotel" destinationId="19968" hotelLatitude="-34.594652400" hotelLongitude="-58.387964000" address="Arenales 1462" zip="C1061AAO" city="Buenos Aires" location="Recoleta" state="Buenos Aires" stateCode="BA" countryCode="AR" destinationCode="BUE" stars="3" status="UpToDate" bestVal="0" providerId="2" uploaded="false"/><Hotel hotelId="12359" hotelName="Bisonte Libertad" destinationId="19968" hotelLatitude="-34.598112900" hotelLongitude="-58.384119500" address="Libertad 902" zip="C1012AAT" city="Buenos Aires" location="Recoleta" state="Buenos Aires" stateCode="BA" countryCode="AR" destinationCode="BUE" stars="4" status="UpToDate" bestVal="0" providerId="2" uploaded="false"/><Hotel hotelId="1415105" hotelName="Buenos Aires Grand Hotel" destinationId="19968" hotelLatitude="-34.592042000" hotelLongitude="-58.391181000" address="Av General Las Heras 1745" zip="1018" city="Buenos Aires" location="Recoleta" state="Buenos Aires" stateCode="BA" countryCode="AR" destinationCode="BUE" stars="5" status="UpToDate" bestVal="0" providerId="2" uploaded="false"/><Hotel hotelId="1215791" hotelName="CasaSur Art" destinationId="19968" hotelLatitude="-34.589052500" hotelLongitude="-58.388700500" address="Avenida Callao 1823" zip="C1024AAE" city="Buenos Aires" location="Recoleta" state="Buenos Aires" stateCode="BA" countryCode="AR" destinationCode="BUE" stars="5" status="UpToDate" bestVal="0" providerId="2" uploaded="false"/><Hotel hotelId="1425532" hotelName="Cyan Recoleta Suites " destinationId="19968" hotelLatitude="-34.588795000" hotelLongitude="-58.392635000" address="Libertad 1039" zip="1113" city="Buenos Aires" location="Recoleta" state="Buenos Aires" stateCode="BA" countryCode="AR" destinationCode="BUE" stars="4" status="UpToDate" bestVal="0" providerId="2" uploaded="false"/><Hotel hotelId="1317452" hotelName="Dazzler Recoleta" destinationId="19968" hotelLatitude="-34.588845000" hotelLongitude="-58.395497900" address="Av. Las Heras 2163" zip="C1113AAS" city="Buenos Aires" location="Recoleta" state="Buenos Aires" stateCode="BA" countryCode="AR" destinationCode="BUE" stars="4" status="UpToDate" bestVal="0" providerId="2" uploaded="false"/><Hotel hotelId="1040963" hotelName="Design CE Hotel de Diseno" destinationId="19968" hotelLatitude="-34.596901000" hotelLongitude="-58.391622000" address="Marcelo T. de Alvear 1695" zip="C1060AAE" city="Buenos Aires" location="Recoleta" state="Buenos Aires" stateCode="BA" countryCode="AR" destinationCode="BUE" stars="4" status="UpToDate" bestVal="0" providerId="2" uploaded="false"/><Hotel hotelId="1041202" hotelName="Emperador Hotel" destinationId="19968" hotelLatitude="-34.589997600" hotelLongitude="-58.379614300" address="Avenida Del Libertador 420" zip="C1001ABR" city="Buenos Aires" location="Recoleta" state="Buenos Aires" stateCode="BA" countryCode="AR" destinationCode="BUE" stars="5" status="UpToDate" bestVal="0" providerId="2" uploaded="false"/><Hotel hotelId="1331914" hotelName="Esplendor Plaza Francia" destinationId="19968" hotelLatitude="-34.585277000" hotelLongitude="-58.388764000" address="Eduardo Schiaffino 2189" zip="1129" city="Buenos Aires" location="Recoleta" state="Buenos Aires" stateCode="BA" countryCode="AR" destinationCode="BUE" stars="4" status="UpToDate" bestVal="0" providerId="2" uploaded="false"/><Hotel hotelId="1032192" hotelName="Hotel Carlton" destinationId="19968" hotelLatitude="-34.594769300" hotelLongitude="-58.384400700" address="Libertad 1180" zip="1716" city="Buenos Aires" location="Recoleta" state="Buenos Aires" stateCode="BA" countryCode="AR" destinationCode="BUE" stars="4" status="UpToDate" bestVal="0" providerId="2" uploaded="false"/><Hotel hotelId="1431474" hotelName="Hotel Club Frances" destinationId="19968" hotelLatitude="-34.589359000" hotelLongitude="-58.387712000" address="Rodriguez Peña 1832" zip="1021" city="Buenos Aires" location="Recoleta" state="Buenos Aires" stateCode="BA" countryCode="AR" destinationCode="BUE" stars="5" status="UpToDate" bestVal="0" providerId="2" uploaded="false"/><Hotel hotelId="1201685" hotelName="Ker Recoleta Hotel &amp; Spa" destinationId="19968" hotelLatitude="-34.596440965" hotelLongitude="-58.386197090" address="Marcelo Torcuato de Alvear 1368" zip="1058" city="Buenos Aires" location="Recoleta" state="Buenos Aires" stateCode="BA" countryCode="AR" destinationCode="BUE" stars="4" status="UpToDate" bestVal="0" providerId="2" uploaded="false"/><Hotel hotelId="1240822" hotelName="Mio Buenos Aires" destinationId="19968" hotelLatitude="-34.588597966" hotelLongitude="-58.389587831" address="AV. Quintana 465" zip="C1129ABA" city="Buenos Aires" location="Recoleta" state="Buenos Aires" stateCode="BA" countryCode="AR" destinationCode="BUE" stars="4" status="UpToDate" bestVal="0" providerId="2" uploaded="false"/><Hotel hotelId="1326569" hotelName="Sileo Hotel" destinationId="19968" hotelLatitude="-34.586928000" hotelLongitude="-58.394720000" address="Azcuenaga 1968" zip="1128" city="Buenos Aires" location="Recoleta" state="Buenos Aires" stateCode="BA" countryCode="AR" destinationCode="BUE" stars="4" status="UpToDate" bestVal="0" providerId="2" uploaded="false"/><Hotel hotelId="1238519" hotelName="Sunlight Recoleta" destinationId="19968" hotelLatitude="-34.594726400" hotelLongitude="-58.393621907" address="Arenales 1837, Caba, Cabrera 6054" zip="1414" city="Buenos Aires" location="Recoleta" state="Buenos Aires" stateCode="BA" countryCode="AR" destinationCode="BUE" stars="3" status="UpToDate" bestVal="0" providerId="2" uploaded="false"/><Hotel hotelId="1216709" hotelName="Ulises Recoleta Suites" destinationId="19968" hotelLatitude="-34.587508400" hotelLongitude="-58.389090500" address="Ayacucho 2016" zip="1112" city="Buenos Aires" location="Recoleta" state="Buenos Aires" stateCode="BA" countryCode="AR" destinationCode="BUE" stars="4" status="UpToDate" bestVal="0" providerId="2" uploaded="false"/><Hotel hotelId="1032204" hotelName="Unique Art Elegance" destinationId="19968" hotelLatitude="-34.588341925" hotelLongitude="-58.399254084" address="Pueyrredon 1940" zip="C1119" city="Buenos Aires" location="Recoleta" state="Buenos Aires" stateCode="BA" countryCode="AR" destinationCode="BUE" stars="4" status="UpToDate" bestVal="0" providerId="2" uploaded="false"/><Hotel hotelId="1032042" hotelName="Unique Executive Chateau" destinationId="19968" hotelLatitude="-34.593569900" hotelLongitude="-58.385974400" address="Talcahuano 1253" zip="1201" city="Buenos Aires" location="Recoleta" state="Buenos Aires" stateCode="BA" countryCode="AR" destinationCode="BUE" stars="4" status="UpToDate" bestVal="0" providerId="2" uploaded="false"/><Hotel hotelId="1032035" hotelName="Unique Luxury Park Plaza" destinationId="19968" hotelLatitude="-34.590302725" hotelLongitude="-58.384952545" address="Parera 183" zip="1201" city="Buenos Aires" location="Recoleta" state="Buenos Aires" stateCode="BA" countryCode="AR" destinationCode="BUE" stars="4" status="UpToDate" bestVal="0" providerId="2" uploaded="false"/></Hotels></CityLocation><CityLocation name="" elementType="2" destinationId="19969" provider="2" status="UpToDate" location="Palermo" destinationCode="BUE" city="Buenos Aires" cityDestinationId="2080"><Hotels><Hotel hotelId="1357436" hotelName="CasaSur Bellini" destinationId="19969" hotelLatitude="-34.579936000" hotelLongitude="-58.412921000" address="Cabello 3780" zip="1425" city="Buenos Aires" location="Palermo" state="Buenos Aires" stateCode="BA" countryCode="AR" destinationCode="BUE" stars="4" status="UpToDate" bestVal="0" providerId="2" uploaded="false"/><Hotel hotelId="1362822" hotelName="Palo Santo Hotel" destinationId="19969" hotelLatitude="-34.578864000" hotelLongitude="-58.432310000" address="Bonpland 2275" zip="C1425FWC" city="Buenos Aires" location="Palermo" state="Buenos Aires" stateCode="BA" countryCode="AR" destinationCode="BUE" stars="4" status="UpToDate" bestVal="0" providerId="2" uploaded="false"/><Hotel hotelId="1220083" hotelName="Be! Hollywood" destinationId="19969" hotelLatitude="-34.584658000" hotelLongitude="-58.435163800" address="Humboldt 1726" zip="1414" city="Buenos Aires" location="Palermo" state="Buenos Aires" stateCode="BA" countryCode="AR" destinationCode="BUE" stars="4" status="UpToDate" bestVal="0" providerId="2" uploaded="false"/><Hotel hotelId="1254457" hotelName="Pop Hotel" destinationId="19969" hotelLatitude="-34.595567000" hotelLongitude="-58.439026000" address="Juan Ramirez de Velasco 793" zip="1414" city="Buenos Aires" location="Palermo" state="Buenos Aires" stateCode="BA" countryCode="AR" destinationCode="BUE" stars="3" status="UpToDate" bestVal="0" providerId="2" uploaded="false"/><Hotel hotelId="1419848" hotelName="Own Grand Palermo Soho" destinationId="19969" hotelLatitude="-34.585312000" hotelLongitude="-58.423662000" address="Gurruchaga 2121" zip="1425" city="Buenos Aires" location="Palermo" state="Buenos Aires" stateCode="BA" countryCode="AR" destinationCode="BUE" stars="4" status="UpToDate" bestVal="0" providerId="2" uploaded="false"/><Hotel hotelId="1413777" hotelName="ISI Baires Apart &amp; Suites" destinationId="19969" hotelLatitude="-34.597947000" hotelLongitude="-58.412752000" address="Avenida Cordoba 3266" zip="1187" city="Buenos Aires" location="Palermo" state="Buenos Aires" stateCode="BA" countryCode="AR" destinationCode="BUE" stars="3" status="UpToDate" bestVal="0" providerId="2" uploaded="false"/><Hotel hotelId="1254093" hotelName="Aspen Square" destinationId="19969" hotelLatitude="-34.582931000" hotelLongitude="-58.423859800" address="Thames 2313" zip="C1425FIG" city="Buenos Aires" location="Palermo" state="Buenos Aires" stateCode="BA" countryCode="AR" destinationCode="BUE" stars="4" status="UpToDate" bestVal="0" providerId="2" uploaded="false"/><Hotel hotelId="1297264" hotelName="Atempo Design Hotel" destinationId="19969" hotelLatitude="-34.582057505" hotelLongitude="-58.441814848" address="Arevalo 1564" zip="1414" city="Buenos Aires" location="Palermo" state="Buenos Aires" stateCode="BA" countryCode="AR" destinationCode="BUE" stars="4" status="UpToDate" bestVal="0" providerId="2" uploaded="false"/><Hotel hotelId="1211632" hotelName="Atenea Apartments and Suites" destinationId="19969" hotelLatitude="-34.582097088" hotelLongitude="-58.442877531" address="Cabrera 6054" zip="1414" city="Buenos Aires" location="Palermo" state="Buenos Aires" stateCode="BA" countryCode="AR" destinationCode="BUE" stars="4" status="UpToDate" bestVal="0" providerId="2" uploaded="false"/><Hotel hotelId="1429535" hotelName="Babel Palermo" destinationId="19969" hotelLatitude="-34.584572282" hotelLongitude="-58.438461972" address="Bonpland 1549" zip="1414" city="Buenos Aires" location="Palermo" state="Buenos Aires" stateCode="BA" countryCode="AR" destinationCode="BUE" stars="3" status="UpToDate" bestVal="0" providerId="2" uploaded="false"/><Hotel hotelId="1218692" hotelName="Blue Soho Hotel" destinationId="19969" hotelLatitude="-34.589002649" hotelLongitude="-58.427469000" address="El Salvador 4735" zip="1414" city="Buenos Aires" location="Palermo" state="Buenos Aires" stateCode="BA" countryCode="AR" destinationCode="BUE" stars="4" status="UpToDate" bestVal="0" providerId="2" uploaded="false"/><Hotel hotelId="1237016" hotelName="Bys Palermo" destinationId="19969" hotelLatitude="-34.596775000" hotelLongitude="-58.422321000" address="Fco. Acuna de Figueroa 1263" zip="C1180AAW" city="Buenos Aires" location="Palermo" state="Buenos Aires" stateCode="BA" countryCode="AR" destinationCode="BUE" stars="4" status="UpToDate" bestVal="0" providerId="2" uploaded="false"/><Hotel hotelId="1438437" hotelName="CasaSur Palermo Hotel" destinationId="19969" hotelLatitude="-34.579263300" hotelLongitude="-58.439058900" address="Costa Rica 6028" zip="1425" city="Buenos Aires" location="Palermo" state="Buenos Aires" stateCode="BA" countryCode="AR" destinationCode="BUE" stars="4" status="UpToDate" bestVal="0" providerId="2" uploaded="false"/><Hotel hotelId="1327270" hotelName="Caseron Porteno" destinationId="19969" hotelLatitude="-34.574193300" hotelLongitude="-58.441825900" address="Ciudad de la Paz 344" zip="1426" city="Buenos Aires" location="Palermo" state="Buenos Aires" stateCode="BA" countryCode="AR" destinationCode="BUE" stars="2" status="UpToDate" bestVal="0" providerId="2" uploaded="false"/><Hotel hotelId="1440577" hotelName="Clasico Hotel" destinationId="19969" hotelLatitude="-34.583532900" hotelLongitude="-58.433568800" address="Costa Rica 5480" zip="1414" city="Buenos Aires" location="Palermo" state="Buenos Aires" stateCode="BA" countryCode="AR" destinationCode="BUE" stars="4" status="UpToDate" bestVal="0" providerId="2" uploaded="false"/><Hotel hotelId="1332191" hotelName="Dazzler Palermo" destinationId="19969" hotelLatitude="-34.584947000" hotelLongitude="-58.435881000" address="Humboldt 1650" zip="1414" city="Buenos Aires" location="Palermo" state="Buenos Aires" stateCode="BA" countryCode="AR" destinationCode="BUE" stars="4" status="UpToDate" bestVal="0" providerId="2" uploaded="false"/><Hotel hotelId="1214129" hotelName="Esplendor Palermo Hollywood" destinationId="19969" hotelLatitude="-34.580547100" hotelLongitude="-58.432236500" address="Fitz Roy 2172" zip="C1425FVB" city="Buenos Aires" location="Palermo" state="Buenos Aires" stateCode="BA" countryCode="AR" destinationCode="BUE" stars="4" status="UpToDate" bestVal="0" providerId="2" uploaded="false"/><Hotel hotelId="1205286" hotelName="Esplendor Palermo Soho" destinationId="19969" hotelLatitude="-34.585100322" hotelLongitude="-58.426494598" address="Guatamala 4931" zip="C1425BUQ" city="Buenos Aires" location="Palermo" state="Buenos Aires" stateCode="BA" countryCode="AR" destinationCode="BUE" stars="4" status="UpToDate" bestVal="0" providerId="2" uploaded="false"/><Hotel hotelId="1244109" hotelName="Fierro Boutique Hotel" destinationId="19969" hotelLatitude="-34.578779300" hotelLongitude="-58.435244500" address="Soler 5862" zip="1425" city="Buenos Aires" location="Palermo" state="Buenos Aires" stateCode="BA" countryCode="AR" destinationCode="BUE" stars="4" status="UpToDate" bestVal="0" providerId="2" uploaded="false"/><Hotel hotelId="1331145" hotelName="HA Flats Quartier del Polo" destinationId="19969" hotelLatitude="-34.570189000" hotelLongitude="-58.434627000" address="República de Eslovenia 1942/50" zip="1426" city="Buenos Aires" location="Palermo" state="Buenos Aires" stateCode="BA" countryCode="AR" destinationCode="BUE" stars="3.7" status="UpToDate" bestVal="0" providerId="2" uploaded="false"/><Hotel hotelId="1321261" hotelName="Hostel Suites Palermo" destinationId="19969" hotelLatitude="-34.581134730" hotelLongitude="-58.426721109" address="Charcas 4752" zip="1043" city="Buenos Aires" location="Palermo" state="Buenos Aires" stateCode="BA" countryCode="AR" destinationCode="BUE" stars="2" status="UpToDate" bestVal="0" providerId="2" uploaded="false"/><Hotel hotelId="1329727" hotelName="Howard Johnson Inn Palermo" destinationId="19969" hotelLatitude="-34.585029100" hotelLongitude="-58.441789200" address="Av. Cnel. Niceto Vega 5832" zip="1414" city="Buenos Aires" location="Palermo" state="Buenos Aires" stateCode="BA" countryCode="AR" destinationCode="BUE" stars="3" status="UpToDate" bestVal="0" providerId="2" uploaded="false"/><Hotel hotelId="1313644" hotelName="Infinito Hotel " destinationId="19969" hotelLatitude="-34.585188667" hotelLongitude="-58.413846518" address="Arenales 3689" zip="1425" city="Buenos Aires" location="Palermo" state="Buenos Aires" stateCode="BA" countryCode="AR" destinationCode="BUE" stars="3" status="UpToDate" bestVal="0" providerId="2" uploaded="false"/><Hotel hotelId="1217617" hotelName="Krista Hotel Boutique" destinationId="19969" hotelLatitude="-34.583422000" hotelLongitude="-58.437693000" address="Bonpland 1665" zip="C1414CMT" city="Buenos Aires" location="Palermo" state="Buenos Aires" stateCode="BA" countryCode="AR" destinationCode="BUE" stars="3" status="UpToDate" bestVal="0" providerId="2" uploaded="false"/><Hotel hotelId="1300657" hotelName="Maitre Hotel Boutique" destinationId="19969" hotelLatitude="-34.570584000" hotelLongitude="-58.431404000" address="Arce 385 " zip="1426" city="Buenos Aires" location="Palermo" state="Buenos Aires" stateCode="BA" countryCode="AR" destinationCode="BUE" stars="4" status="UpToDate" bestVal="0" providerId="2" uploaded="false"/><Hotel hotelId="1213076" hotelName="Mine Hotel Boutique" destinationId="19969" hotelLatitude="-34.590799541" hotelLongitude="-58.428822756" address="Gorriti 4770" zip="C1414BJL" city="Buenos Aires" location="Palermo" state="Buenos Aires" stateCode="BA" countryCode="AR" destinationCode="BUE" stars="4" status="UpToDate" bestVal="0" providerId="2" uploaded="false"/><Hotel hotelId="1218697" hotelName="Own Palermo Hollywood" destinationId="19969" hotelLatitude="-34.586056100" hotelLongitude="-58.437686600" address="Jose A Cabrera 5556" zip="1414" city="Buenos Aires" location="Palermo" state="Buenos Aires" stateCode="BA" countryCode="AR" destinationCode="BUE" stars="4" status="UpToDate" bestVal="0" providerId="2" uploaded="false"/><Hotel hotelId="1331000" hotelName="Palermitano Hotel" destinationId="19969" hotelLatitude="-34.587144100" hotelLongitude="-58.431633600" address="Uriarte 1648" zip="1414" city="Buenos Aires" location="Palermo" state="Buenos Aires" stateCode="BA" countryCode="AR" destinationCode="BUE" stars="4" status="UpToDate" bestVal="0" providerId="2" uploaded="false"/><Hotel hotelId="1211641" hotelName="Palermo Suites Buenos Aires Apartments" destinationId="19969" hotelLatitude="-34.578737000" hotelLongitude="-58.423955000" address="Fray J Sta. Maria de Oro 2529" zip="C1425FOJ" city="Buenos Aires" location="Palermo" state="Buenos Aires" stateCode="BA" countryCode="AR" destinationCode="BUE" stars="3.7" status="UpToDate" bestVal="0" providerId="2" uploaded="false"/><Hotel hotelId="1355336" hotelName="Prodeo Hotel &amp; Lounge" destinationId="19969" hotelLatitude="-34.587072600" hotelLongitude="-58.434561300" address="Gorriti 5374" zip="1414" city="Buenos Aires" location="Palermo" state="Buenos Aires" stateCode="BA" countryCode="AR" destinationCode="BUE" stars="4" status="UpToDate" bestVal="0" providerId="2" uploaded="false"/><Hotel hotelId="1215648" hotelName="Purobaires Hotel Boutique" destinationId="19969" hotelLatitude="-34.592342967" hotelLongitude="-58.431172371" address="Niceto Vega 4788" zip="1414" city="Buenos Aires" location="Palermo" state="Buenos Aires" stateCode="BA" countryCode="AR" destinationCode="BUE" stars="4" status="UpToDate" bestVal="0" providerId="2" uploaded="false"/><Hotel hotelId="1215643" hotelName="Ultra Hotel Buenos Aires" destinationId="19969" hotelLatitude="-34.589821000" hotelLongitude="-58.430514600" address="Gorriti 4929" zip="1414" city="Buenos Aires" location="Palermo" state="Buenos Aires" stateCode="BA" countryCode="AR" destinationCode="BUE" stars="4" status="UpToDate" bestVal="0" providerId="2" uploaded="false"/><Hotel hotelId="1216151" hotelName="Vain Boutique Hotel" destinationId="19969" hotelLatitude="-34.583333727" hotelLongitude="-58.424971104" address="Thames 2226" zip="1425" city="Buenos Aires" location="Palermo" state="Buenos Aires" stateCode="BA" countryCode="AR" destinationCode="BUE" stars="4" status="UpToDate" bestVal="0" providerId="2" uploaded="false"/><Hotel hotelId="1205946" hotelName="Vitrum Hotel" destinationId="19969" hotelLatitude="-34.584608500" hotelLongitude="-58.437587100" address="Gorriti 5641" zip="C1414BKE" city="Buenos Aires" location="Palermo" state="Buenos Aires" stateCode="BA" countryCode="AR" destinationCode="BUE" stars="4" status="UpToDate" bestVal="0" providerId="2" uploaded="false"/></Hotels></CityLocation><CityLocation name="" elementType="2" destinationId="20307" provider="2" status="UpToDate" location="Downtown" destinationCode="BUE" city="Buenos Aires" cityDestinationId="2080"><Hotels><Hotel hotelId="1034674" hotelName="Pestana Buenos Aires" destinationId="20307" hotelLatitude="-34.598136978" hotelLongitude="-58.381039440" address="Av. Carlos Pellegrini 877" zip="1009 - ABQ" city="Buenos Aires" location="Downtown" state="Buenos Aires" stateCode="BA" countryCode="AR" destinationCode="BUE" stars="4" status="UpToDate" bestVal="0" providerId="2" uploaded="false"/><Hotel hotelId="1031667" hotelName="725 Continental Hotel" destinationId="20307" hotelLatitude="-34.606021600" hotelLongitude="-58.376847400" address="Avenida Roque Saenz Pena 725" zip="C1035AAC" city="Buenos Aires" location="Downtown" state="Buenos Aires" stateCode="BA" countryCode="AR" destinationCode="BUE" stars="5" status="UpToDate" bestVal="0" providerId="2" uploaded="false"/><Hotel hotelId="1209206" hotelName="Complejo Tango Hotel Boutique" destinationId="20307" hotelLatitude="-34.614623397" hotelLongitude="-58.403048712" address="Av. Belgrano 2608" zip="C1096AAQ" city="Buenos Aires" location="Downtown" state="Buenos Aires" stateCode="BA" countryCode="AR" destinationCode="BUE" stars="3" status="UpToDate" bestVal="0" providerId="2" uploaded="false"/><Hotel hotelId="1032013" hotelName="Mayflower Suites" destinationId="20307" hotelLatitude="-34.600066512" hotelLongitude="-58.388090342" address="Parana 720" zip="C1017AAP" city="Buenos Aires" location="Downtown" state="Buenos Aires" stateCode="BA" countryCode="AR" destinationCode="BUE" stars="4" status="UpToDate" bestVal="0" providerId="2" uploaded="false"/><Hotel hotelId="1244975" hotelName="Alma De Buenos Aires" destinationId="20307" hotelLatitude="-34.602017046" hotelLongitude="-58.379626951" address="Suipacha 536" zip="1008" city="Buenos Aires" location="Downtown" state="Buenos Aires" stateCode="BA" countryCode="AR" destinationCode="BUE" stars="3" status="UpToDate" bestVal="0" providerId="2" uploaded="false"/><Hotel hotelId="1439522" hotelName="Tucuman Palace Hotel" destinationId="20307" hotelLatitude="-34.600643000" hotelLongitude="-58.372362000" address="Tucuman 384" zip="C1049AAH" city="Buenos Aires" location="Downtown" state="Buenos Aires" stateCode="BA" countryCode="AR" destinationCode="BUE" stars="3" status="UpToDate" bestVal="0" providerId="2" uploaded="false"/><Hotel hotelId="1215623" hotelName="Argentina Tango" destinationId="20307" hotelLatitude="-34.601905500" hotelLongitude="-58.379625700" address="Suipacha 545" zip="1008" city="Buenos Aires" location="Downtown" state="Buenos Aires" stateCode="BA" countryCode="AR" destinationCode="BUE" stars="3" status="UpToDate" bestVal="0" providerId="2" uploaded="false"/><Hotel hotelId="1041121" hotelName="Gran Hotel Orly" destinationId="20307" hotelLatitude="-34.597418100" hotelLongitude="-58.373915600" address="Paraguay 474" zip="1057" city="Buenos Aires" location="Downtown" state="Buenos Aires" stateCode="BA" countryCode="AR" destinationCode="BUE" stars="3" status="UpToDate" bestVal="0" providerId="2" uploaded="false"/><Hotel hotelId="1233501" hotelName="Lennox Hotel Buenos Aires" destinationId="20307" hotelLatitude="-34.608074000" hotelLongitude="-58.384991000" address="Talcahuano 52" zip="c1013aab" city="Buenos Aires" location="Downtown" state="Buenos Aires" stateCode="BA" countryCode="AR" destinationCode="BUE" stars="4" status="UpToDate" bestVal="0" providerId="2" uploaded="false"/><Hotel hotelId="19559" hotelName="Savoy Hotel" destinationId="20307" hotelLatitude="-34.607023192" hotelLongitude="-58.391867652" address="Avenida Callao 181" zip="1022" city="Buenos Aires" location="Downtown" state="Buenos Aires" stateCode="BA" countryCode="AR" destinationCode="BUE" stars="4" status="UpToDate" bestVal="0" providerId="2" uploaded="false"/><Hotel hotelId="15521" hotelName="InterContinental Buenos Aires" destinationId="20307" hotelLatitude="-34.611656544" hotelLongitude="-58.377764225" address="Moreno 809" zip="C1091AAQ" city="Buenos Aires" location="Downtown" state="Buenos Aires" stateCode="BA" countryCode="AR" destinationCode="BUE" stars="5" status="UpToDate" bestVal="0" providerId="2" uploaded="false"/><Hotel hotelId="9005" hotelName="Sheraton Libertador" destinationId="20307" hotelLatitude="-34.598819300" hotelLongitude="-58.376655100" address="Avenida Cordoba 690 " zip="1054" city="Buenos Aires" location="Downtown" state="Buenos Aires" stateCode="BA" countryCode="AR" destinationCode="BUE" stars="5" status="UpToDate" bestVal="0" providerId="2" uploaded="false"/><Hotel hotelId="1031389" hotelName="Obelisco Center Suites" destinationId="20307" hotelLatitude="-34.604074000" hotelLongitude="-58.380661000" address="Av. Pte. Roque Saenz Pena 991" zip="C1035AAE" city="Buenos Aires" location="Downtown" state="Buenos Aires" stateCode="BA" countryCode="AR" destinationCode="BUE" stars="4" status="UpToDate" bestVal="0" providerId="2" uploaded="false"/><Hotel hotelId="1298319" hotelName="Carsson Hotel" destinationId="20307" hotelLatitude="-34.599988672" hotelLongitude="-58.376015102" address="Viamonte 650" zip="1053" city="Buenos Aires" location="Downtown" state="Buenos Aires" stateCode="BA" countryCode="AR" destinationCode="BUE" stars="4" status="UpToDate" bestVal="0" providerId="2" uploaded="false"/><Hotel hotelId="11084" hotelName="Regente Palace Hotel" destinationId="20307" hotelLatitude="-34.596961616" hotelLongitude="-58.379978960" address="Suipacha 964" zip="C1008AAT" city="Buenos Aires" location="Downtown" state="Buenos Aires" stateCode="BA" countryCode="AR" destinationCode="BUE" stars="4" status="UpToDate" bestVal="0" providerId="2" uploaded="false"/><Hotel hotelId="11079" hotelName="525 Embajador Hotel" destinationId="20307" hotelLatitude="-34.594453814" hotelLongitude="-58.381508589" address="Carlos Pellegrini 1185" zip="C1009 ABW" city="Buenos Aires" location="Downtown" state="Buenos Aires" stateCode="BA" countryCode="AR" destinationCode="BUE" stars="3" status="UpToDate" bestVal="0" providerId="2" uploaded="false"/><Hotel hotelId="1041115" hotelName="525 Sheltown Hotel" destinationId="20307" hotelLatitude="-34.596335400" hotelLongitude="-58.377543200" address="Marcelo T. De Alvear 742" zip="C1058AAJ" city="Buenos Aires" location="Downtown" state="Buenos Aires" stateCode="BA" countryCode="AR" destinationCode="BUE" stars="4" status="UpToDate" bestVal="0" providerId="2" uploaded="false"/><Hotel hotelId="9230" hotelName="NH City &amp; Tower" destinationId="20307" hotelLatitude="-34.609567000" hotelLongitude="-58.373621000" address="Bolivar 160" zip="C1066AAD" city="Buenos Aires" location="Downtown" state="Buenos Aires" stateCode="BA" countryCode="AR" destinationCode="BUE" stars="5" status="UpToDate" bestVal="0" providerId="2" uploaded="false"/><Hotel hotelId="1205245" hotelName="NH Latino" destinationId="20307" hotelLatitude="-34.604000533" hotelLongitude="-58.379695415" address="Suipacha 309" zip="C1008AAG " city="Buenos Aires" location="Downtown" state="Buenos Aires" stateCode="BA" countryCode="AR" destinationCode="BUE" stars="4" status="UpToDate" bestVal="0" providerId="2" uploaded="false"/><Hotel hotelId="9229" hotelName="NH Jousten Collection" destinationId="20307" hotelLatitude="-34.602764202" hotelLongitude="-58.370736837" address="Avda. Corrientes 240" zip="C1043AAP" city="Buenos Aires" location="Downtown" state="Buenos Aires" stateCode="BA" countryCode="AR" destinationCode="BUE" stars="4" status="UpToDate" bestVal="0" providerId="2" uploaded="false"/><Hotel hotelId="14399" hotelName="562 Nogaro Hotel" destinationId="20307" hotelLatitude="-34.609839700" hotelLongitude="-58.374266800" address="Avenida Julio A Roca 562" zip="C1067ABN " city="Buenos Aires" location="Downtown" state="Buenos Aires" stateCode="BA" countryCode="AR" destinationCode="BUE" stars="4" status="UpToDate" bestVal="0" providerId="2" uploaded="false"/><Hotel hotelId="1031639" hotelName="Imperial Park Hotel" destinationId="20307" hotelLatitude="-34.609644649" hotelLongitude="-58.382164370" address="Lima 101" zip="C1073AAC" city="Buenos Aires" location="Downtown" state="Buenos Aires" stateCode="BA" countryCode="AR" destinationCode="BUE" stars="4" status="UpToDate" bestVal="0" providerId="2" uploaded="false"/><Hotel hotelId="1220308" hotelName="NH 9 de Julio" destinationId="20307" hotelLatitude="-34.606331850" hotelLongitude="-58.382549286" address="Cerrito 156" zip="C1010AAD" city="Buenos Aires" location="Downtown" state="Buenos Aires" stateCode="BA" countryCode="AR" destinationCode="BUE" stars="4" status="UpToDate" bestVal="0" providerId="2" uploaded="false"/><Hotel hotelId="1205726" hotelName="Dolmen Hotel" destinationId="20307" hotelLatitude="-34.595381157" hotelLongitude="-58.379620314" address="Suipacha 1079" zip="1008AAU" city="Buenos Aires" location="Downtown" state="Buenos Aires" stateCode="BA" countryCode="AR" destinationCode="BUE" stars="4" status="UpToDate" bestVal="0" providerId="2" uploaded="false"/><Hotel hotelId="1221217" hotelName="NH Tango" destinationId="20307" hotelLatitude="-34.601969700" hotelLongitude="-58.382426700" address="Cerrito 550" zip="C1010AAL" city="Buenos Aires" location="Downtown" state="Buenos Aires" stateCode="BA" countryCode="AR" destinationCode="BUE" stars="4" status="UpToDate" bestVal="0" providerId="2" uploaded="false"/><Hotel hotelId="1031417" hotelName="Amerian Buenos Aires Park" destinationId="20307" hotelLatitude="-34.599498000" hotelLongitude="-58.372583000" address="Reconquista 699" zip="C1003ABM" city="Buenos Aires" location="Downtown" state="Buenos Aires" stateCode="BA" countryCode="AR" destinationCode="BUE" stars="4" status="UpToDate" bestVal="0" providerId="2" uploaded="false"/><Hotel hotelId="11082" hotelName="Aspen Suites Hotel" destinationId="20307" hotelLatitude="-34.597216600" hotelLongitude="-58.378480900" address="Esmeralda 933" zip="C1007ABK" city="Buenos Aires" location="Downtown" state="Buenos Aires" stateCode="BA" countryCode="AR" destinationCode="BUE" stars="3" status="UpToDate" bestVal="0" providerId="2" uploaded="false"/><Hotel hotelId="11080" hotelName="Aspen Towers " destinationId="20307" hotelLatitude="-34.597076843" hotelLongitude="-58.378944397" address="Paraguay 857" zip="C1057AAK" city="Buenos Aires" location="Downtown" state="Buenos Aires" stateCode="BA" countryCode="AR" destinationCode="BUE" stars="4" status="UpToDate" bestVal="0" providerId="2" uploaded="false"/><Hotel hotelId="1297224" hotelName="Bauen Suites Hotel" destinationId="20307" hotelLatitude="-34.604464900" hotelLongitude="-58.393078700" address="Av. Corrientes 1856" zip="1045" city="Buenos Aires" location="Downtown" state="Buenos Aires" stateCode="BA" countryCode="AR" destinationCode="BUE" stars="4" status="UpToDate" bestVal="0" providerId="2" uploaded="false"/><Hotel hotelId="1327148" hotelName="Bet Hotel Buenos Aires" destinationId="20307" hotelLatitude="-34.615579000" hotelLongitude="-58.402679000" address="Saavedra 526" zip="1229" city="Buenos Aires" location="Downtown" state="Buenos Aires" stateCode="BA" countryCode="AR" destinationCode="BUE" stars="2" status="UpToDate" bestVal="0" providerId="2" uploaded="false"/><Hotel hotelId="1237248" hotelName="Bisonte Palace Hotel" destinationId="20307" hotelLatitude="-34.596350000" hotelLongitude="-58.379961000" address="Marcelo T de Alvear 910" zip="1428" city="Buenos Aires" location="Downtown" state="Buenos Aires" stateCode="BA" countryCode="AR" destinationCode="BUE" stars="4" status="UpToDate" bestVal="0" providerId="2" uploaded="false"/><Hotel hotelId="1040929" hotelName="Bristol Hotel" destinationId="20307" hotelLatitude="-34.605238000" hotelLongitude="-58.382167000" address="Cerrito 286" zip="1010" city="Buenos Aires" location="Downtown" state="Buenos Aires" stateCode="BA" countryCode="AR" destinationCode="BUE" stars="4" status="UpToDate" bestVal="0" providerId="2" uploaded="false"/><Hotel hotelId="12440" hotelName="Broadway Suites" destinationId="20307" hotelLatitude="-34.747386900" hotelLongitude="-58.303974200" address="Avenida Corrientes 1173" zip="C1043 AAL" city="Buenos Aires" location="Downtown" state="Buenos Aires" stateCode="BA" countryCode="AR" destinationCode="BUE" stars="4" status="UpToDate" bestVal="0" providerId="2" uploaded="false"/><Hotel hotelId="1220102" hotelName="CasaCalma Hotel" destinationId="20307" hotelLatitude="-34.595416484" hotelLongitude="-58.379888535" address="Suipacha 1015" zip="C1008AAU" city="Buenos Aires" location="Downtown" state="Buenos Aires" stateCode="BA" countryCode="AR" destinationCode="BUE" stars="4" status="UpToDate" bestVal="0" providerId="2" uploaded="false"/><Hotel hotelId="1033717" hotelName="Catalinas Suites" destinationId="20307" hotelLatitude="-34.600335641" hotelLongitude="-58.371402025" address="Tucuman 313" zip="C1049AAG" city="Buenos Aires" location="Downtown" state="Buenos Aires" stateCode="BA" countryCode="AR" destinationCode="BUE" stars="3" status="UpToDate" bestVal="0" providerId="2" uploaded="false"/><Hotel hotelId="1031530" hotelName="Claridge " destinationId="20307" hotelLatitude="-34.600653566" hotelLongitude="-58.374609947" address="Tucuman 535" zip="C1049AAK" city="Buenos Aires" location="Downtown" state="Buenos Aires" stateCode="BA" countryCode="AR" destinationCode="BUE" stars="5" status="UpToDate" bestVal="0" providerId="2" uploaded="false"/><Hotel hotelId="1031599" hotelName="Comfort Baires" destinationId="20307" hotelLatitude="-34.600632900" hotelLongitude="-58.388112400" address="Viamonte 1501" zip="C1055ABC" city="Buenos Aires" location="Downtown" state="Buenos Aires" stateCode="BA" countryCode="AR" destinationCode="BUE" stars="3" status="UpToDate" bestVal="0" providerId="2" uploaded="false"/><Hotel hotelId="1031943" hotelName="Concorde Hotel" destinationId="20307" hotelLatitude="-34.600401400" hotelLongitude="-58.371325600" address="25 de Mayo 630" zip="C1002ABN" city="Buenos Aires" location="Downtown" state="Buenos Aires" stateCode="BA" countryCode="AR" destinationCode="BUE" stars="3" status="UpToDate" bestVal="0" providerId="2" uploaded="false"/><Hotel hotelId="1205240" hotelName="Conte Hotel" destinationId="20307" hotelLatitude="-34.606985313" hotelLongitude="-58.380553722" address="Carlos Pellegrini 101" zip="" city="Buenos Aires" location="Downtown" state="Buenos Aires" stateCode="BA" countryCode="AR" destinationCode="BUE" stars="4" status="UpToDate" bestVal="0" providerId="2" uploaded="false"/><Hotel hotelId="12355" hotelName="Dazzler San Martin" destinationId="20307" hotelLatitude="-34.596741241" hotelLongitude="-58.374191523" address="San Martin 920" zip="C1012AAT" city="Buenos Aires" location="Downtown" state="Buenos Aires" stateCode="BA" countryCode="AR" destinationCode="BUE" stars="4" status="UpToDate" bestVal="0" providerId="2" uploaded="false"/><Hotel hotelId="1031641" hotelName="De Las Luces Hotel" destinationId="20307" hotelLatitude="-34.742343200" hotelLongitude="-58.393164600" address="Alsina 525" zip="1049" city="Buenos Aires" location="Downtown" state="Buenos Aires" stateCode="BA" countryCode="AR" destinationCode="BUE" stars="3" status="UpToDate" bestVal="0" providerId="2" uploaded="false"/><Hotel hotelId="13955" hotelName="El Conquistador Hotel" destinationId="20307" hotelLatitude="-34.597105500" hotelLongitude="-58.379985400" address="Suipacha 948" zip="1008" city="Buenos Aires" location="Downtown" state="Buenos Aires" stateCode="BA" countryCode="AR" destinationCode="BUE" stars="4" status="UpToDate" bestVal="0" providerId="2" uploaded="false"/><Hotel hotelId="1230242" hotelName="Eurobuilding - Hotel Boutique Buenos Aires" destinationId="20307" hotelLatitude="-34.610679000" hotelLongitude="-58.381893600" address="Lima 187" zip="C1073AAC" city="Buenos Aires" location="Downtown" state="Buenos Aires" stateCode="BA" countryCode="AR" destinationCode="BUE" stars="4" status="UpToDate" bestVal="0" providerId="2" uploaded="false"/><Hotel hotelId="1212947" hotelName="Exe Hotel Colon" destinationId="20307" hotelLatitude="-34.602415800" hotelLongitude="-58.381041200" address="Carlos Pellegrini 507" zip="C1009ABK" city="Buenos Aires" location="Downtown" state="Buenos Aires" stateCode="BA" countryCode="AR" destinationCode="BUE" stars="4" status="UpToDate" bestVal="0" providerId="2" uploaded="false"/><Hotel hotelId="1231446" hotelName="Galerias Hotel" destinationId="20307" hotelLatitude="-34.601042600" hotelLongitude="-58.375947100" address="Tucuman 651" zip="A1049AAM" city="Buenos Aires" location="Downtown" state="Buenos Aires" stateCode="BA" countryCode="AR" destinationCode="BUE" stars="4" status="UpToDate" bestVal="0" providerId="2" uploaded="false"/><Hotel hotelId="1213646" hotelName="Gran Hotel De la Paix" destinationId="20307" hotelLatitude="-34.608497200" hotelLongitude="-58.382785900" address="Rivadavia 1155" zip="1033" city="Buenos Aires" location="Downtown" state="Buenos Aires" stateCode="BA" countryCode="AR" destinationCode="BUE" stars="3" status="UpToDate" bestVal="0" providerId="2" uploaded="false"/><Hotel hotelId="1034655" hotelName="Grand King Hotel" destinationId="20307" hotelLatitude="-34.601792786" hotelLongitude="-58.374567032" address="Lavalle 560" zip="C1047AAL" city="Buenos Aires" location="Downtown" state="Buenos Aires" stateCode="BA" countryCode="AR" destinationCode="BUE" stars="4" status="UpToDate" bestVal="0" providerId="2" uploaded="false"/><Hotel hotelId="1220084" hotelName="Hostel Suites Florida" destinationId="20307" hotelLatitude="-34.604217100" hotelLongitude="-58.375172600" address="Florida 328" zip="1005" city="Buenos Aires" location="Downtown" state="Buenos Aires" stateCode="BA" countryCode="AR" destinationCode="BUE" stars="3" status="UpToDate" bestVal="0" providerId="2" uploaded="false"/><Hotel hotelId="1321257" hotelName="Hostel Suites Obelisco" destinationId="20307" hotelLatitude="-34.603530000" hotelLongitude="-58.378472800" address="Corrientes 830" zip="1043" city="Buenos Aires" location="Downtown" state="Buenos Aires" stateCode="BA" countryCode="AR" destinationCode="BUE" stars="2" status="UpToDate" bestVal="0" providerId="2" uploaded="false"/><Hotel hotelId="1232754" hotelName="Hotel Milan" destinationId="20307" hotelLatitude="-34.604987700" hotelLongitude="-58.389356700" address="Montevideo 337" zip="1019" city="Buenos Aires" location="Downtown" state="Buenos Aires" stateCode="BA" countryCode="AR" destinationCode="BUE" stars="3" status="UpToDate" bestVal="0" providerId="2" uploaded="false"/><Hotel hotelId="1206080" hotelName="Hotel Park Silver Obelisco" destinationId="20307" hotelLatitude="-34.604580123" hotelLongitude="-58.382516123" address="Cerrito 330 " zip="1010" city="Buenos Aires" location="Downtown" state="Buenos Aires" stateCode="BA" countryCode="AR" destinationCode="BUE" stars="4" status="UpToDate" bestVal="0" providerId="2" uploaded="false"/><Hotel hotelId="1031989" hotelName="Hotel Presidente" destinationId="20307" hotelLatitude="-34.598546300" hotelLongitude="-58.382653400" address="Cerrito 850" zip="C1010AAR" city="Buenos Aires" location="Downtown" state="Buenos Aires" stateCode="BA" countryCode="AR" destinationCode="BUE" stars="4" status="UpToDate" bestVal="0" providerId="2" uploaded="false"/><Hotel hotelId="1031436" hotelName="Howard Johnson Hotel 9 de Julio Avenue" destinationId="20307" hotelLatitude="-34.613395500" hotelLongitude="-58.380463300" address="Bernardo de Irigoyen 432" zip="C1072AAJ" city="Buenos Aires" location="Downtown" state="Buenos Aires" stateCode="BA" countryCode="AR" destinationCode="BUE" stars="4" status="UpToDate" bestVal="0" providerId="2" uploaded="false"/><Hotel hotelId="1031433" hotelName="Howard Johnson Plaza Florida" destinationId="20307" hotelLatitude="-34.596511618" hotelLongitude="-58.375489712" address="Florida 944" zip="C1105AAU" city="Buenos Aires" location="Downtown" state="Buenos Aires" stateCode="BA" countryCode="AR" destinationCode="BUE" stars="4" status="UpToDate" bestVal="0" providerId="2" uploaded="false"/><Hotel hotelId="1215893" hotelName="HR Luxor Hotel Buenos Aires" destinationId="20307" hotelLatitude="-34.605125600" hotelLongitude="-58.379139100" address="890 Roque Saenz Pena Ave" zip="C1035AAQ" city="Buenos Aires" location="Downtown" state="Buenos Aires" stateCode="BA" countryCode="AR" destinationCode="BUE" stars="4" status="UpToDate" bestVal="0" providerId="2" uploaded="false"/><Hotel hotelId="1226316" hotelName="Icaro Suites" destinationId="20307" hotelLatitude="-34.605983000" hotelLongitude="-58.389448000" address="Montevideo 229" zip="1019" city="Buenos Aires" location="Downtown" state="Buenos Aires" stateCode="BA" countryCode="AR" destinationCode="BUE" stars="4" status="UpToDate" bestVal="0" providerId="2" uploaded="false"/><Hotel hotelId="1232866" hotelName="Intersur Recoleta" destinationId="20307" hotelLatitude="-34.589438900" hotelLongitude="-58.389365900" address="Avenida Callao 1764" zip="1024" city="Buenos Aires" location="Downtown" state="Buenos Aires" stateCode="BA" countryCode="AR" destinationCode="BUE" stars="4" status="UpToDate" bestVal="0" providerId="2" uploaded="false"/><Hotel hotelId="1213075" hotelName="King's Hotel" destinationId="20307" hotelLatitude="-34.603332500" hotelLongitude="-58.375636400" address="Av. Corrientes 623" zip="C1043AAG" city="Buenos Aires" location="Downtown" state="Buenos Aires" stateCode="BA" countryCode="AR" destinationCode="BUE" stars="1" status="UpToDate" bestVal="0" providerId="2" uploaded="false"/><Hotel hotelId="1232221" hotelName="Lafayette Hotel " destinationId="20307" hotelLatitude="-34.601504500" hotelLongitude="-58.372572700" address="Reconquista 546" zip="1043" city="Buenos Aires" location="Downtown" state="Buenos Aires" stateCode="BA" countryCode="AR" destinationCode="BUE" stars="4" status="UpToDate" bestVal="0" providerId="2" uploaded="false"/><Hotel hotelId="1031473" hotelName="Loi Suites Arenales" destinationId="20307" hotelLatitude="-34.593332157" hotelLongitude="-58.379137516" address="Arenales 855" zip="1061" city="Buenos Aires" location="Downtown" state="Buenos Aires" stateCode="BA" countryCode="AR" destinationCode="BUE" stars="4" status="UpToDate" bestVal="0" providerId="2" uploaded="false"/><Hotel hotelId="1213361" hotelName="Monarca Hoteles" destinationId="20307" hotelLatitude="-34.599366627" hotelLongitude="-58.371342898" address="25 de Mayo 724" zip="1002" city="Buenos Aires" location="Downtown" state="Buenos Aires" stateCode="BA" countryCode="AR" destinationCode="BUE" stars="3" status="UpToDate" bestVal="0" providerId="2" uploaded="false"/><Hotel hotelId="1226821" hotelName="Monserrat Apart Hotel" destinationId="20307" hotelLatitude="-34.614890600" hotelLongitude="-58.383103400" address="Salta 556" zip="C1074AAL" city="Buenos Aires" location="Downtown" state="Buenos Aires" stateCode="BA" countryCode="AR" destinationCode="BUE" stars="4" status="UpToDate" bestVal="0" providerId="2" uploaded="false"/><Hotel hotelId="1205285" hotelName="Moreno Buenos Aires" destinationId="20307" hotelLatitude="-34.610941307" hotelLongitude="-58.371455669" address="Moreno 376" zip="C1091AAH" city="Buenos Aires" location="Downtown" state="Buenos Aires" stateCode="BA" countryCode="AR" destinationCode="BUE" stars="4" status="UpToDate" bestVal="0" providerId="2" uploaded="false"/><Hotel hotelId="15046" hotelName="Panamericano Buenos Aires Hotel" destinationId="20307" hotelLatitude="-34.601792786" hotelLongitude="-58.380972147" address="Carlos Pellegrini 551" zip="1009" city="Buenos Aires" location="Downtown" state="Buenos Aires" stateCode="BA" countryCode="AR" destinationCode="BUE" stars="5" status="UpToDate" bestVal="0" providerId="2" uploaded="false"/><Hotel hotelId="1226149" hotelName="Park Royal Buenos Aires" destinationId="20307" hotelLatitude="-34.595529300" hotelLongitude="-58.380097000" address="Suipacha 1092" zip="C1008AAV" city="Buenos Aires" location="Downtown" state="Buenos Aires" stateCode="BA" countryCode="AR" destinationCode="BUE" stars="4" status="UpToDate" bestVal="0" providerId="2" uploaded="false"/><Hotel hotelId="1221843" hotelName="Piedras Suites" destinationId="20307" hotelLatitude="-34.618709800" hotelLongitude="-58.377232400" address="Piedras 906" zip="1041" city="Buenos Aires" location="Downtown" state="Buenos Aires" stateCode="BA" countryCode="AR" destinationCode="BUE" stars="4" status="UpToDate" bestVal="0" providerId="2" uploaded="false"/><Hotel hotelId="1032029" hotelName="Reconquista Plaza Hotel" destinationId="20307" hotelLatitude="-34.600777697" hotelLongitude="-58.372718246" address="Reconquista 602 " zip="C1003ABN" city="Buenos Aires" location="Downtown" state="Buenos Aires" stateCode="BA" countryCode="AR" destinationCode="BUE" stars="4" status="UpToDate" bestVal="0" providerId="2" uploaded="false"/><Hotel hotelId="1209818" hotelName="Reino Del Plata Hotel Boutique" destinationId="20307" hotelLatitude="-34.609239600" hotelLongitude="-58.375576100" address="Hipolito Yrigoyen 647" zip="1086" city="Buenos Aires" location="Downtown" state="Buenos Aires" stateCode="BA" countryCode="AR" destinationCode="BUE" stars="4" status="UpToDate" bestVal="0" providerId="2" uploaded="false"/><Hotel hotelId="1295870" hotelName="Republica Hotel Wellness &amp; Spa" destinationId="20307" hotelLatitude="-34.604162031" hotelLongitude="-58.382385090" address="Cerrito 370" zip="C1010AAH" city="Buenos Aires" location="Downtown" state="Buenos Aires" stateCode="BA" countryCode="AR" destinationCode="BUE" stars="4" status="UpToDate" bestVal="0" providerId="2" uploaded="false"/><Hotel hotelId="1314581" hotelName="Riva Urban Lofts" destinationId="20307" hotelLatitude="-34.608558000" hotelLongitude="-58.383181000" address="Avenue. Rivadavia 1182 " zip="1033" city="Buenos Aires" location="Downtown" state="Buenos Aires" stateCode="BA" countryCode="AR" destinationCode="BUE" stars="4" status="UpToDate" bestVal="0" providerId="2" uploaded="false"/><Hotel hotelId="1205814" hotelName="Rochester Classic Hotel" destinationId="20307" hotelLatitude="-34.601563177" hotelLongitude="-58.378010988" address="Esmeralda 542" zip="C1007ABB" city="Buenos Aires" location="Downtown" state="Buenos Aires" stateCode="BA" countryCode="AR" destinationCode="BUE" stars="4" status="UpToDate" bestVal="0" providerId="2" uploaded="false"/><Hotel hotelId="1205815" hotelName="Rochester Concept Hotel" destinationId="20307" hotelLatitude="-34.601460600" hotelLongitude="-58.376742500" address="Maipu 572" zip="C1006ACF" city="Buenos Aires" location="Downtown" state="Buenos Aires" stateCode="BA" countryCode="AR" destinationCode="BUE" stars="3" status="UpToDate" bestVal="0" providerId="2" uploaded="false"/><Hotel hotelId="1251318" hotelName="Rochester M" destinationId="20307" hotelLatitude="-34.601738500" hotelLongitude="-58.378158600" address="Esmeralda 556" zip="1007" city="Buenos Aires" location="Downtown" state="Buenos Aires" stateCode="BA" countryCode="AR" destinationCode="BUE" stars="4" status="UpToDate" bestVal="0" providerId="2" uploaded="false"/><Hotel hotelId="1031977" hotelName="Salles Hotel" destinationId="20307" hotelLatitude="-34.606108500" hotelLongitude="-58.382119100" address="Cerrito 208 " zip="C1010WAF" city="Buenos Aires" location="Downtown" state="Buenos Aires" stateCode="BA" countryCode="AR" destinationCode="BUE" stars="4" status="UpToDate" bestVal="0" providerId="2" uploaded="false"/><Hotel hotelId="1327560" hotelName="Sarmiento Suites" destinationId="20307" hotelLatitude="-34.604319000" hotelLongitude="-58.376002000" address="Sarmiento 674" zip="1041" city="Buenos Aires" location="Downtown" state="Buenos Aires" stateCode="BA" countryCode="AR" destinationCode="BUE" stars="3" status="UpToDate" bestVal="0" providerId="2" uploaded="false"/><Hotel hotelId="1217210" hotelName="Tanguero Hotel Boutique" destinationId="20307" hotelLatitude="-34.599223300" hotelLongitude="-58.379727200" address="Suipacha 780" zip="1008" city="Buenos Aires" location="Downtown" state="Buenos Aires" stateCode="BA" countryCode="AR" destinationCode="BUE" stars="4" status="UpToDate" bestVal="0" providerId="2" uploaded="false"/><Hotel hotelId="17988" hotelName="Tritone Hotel" destinationId="20307" hotelLatitude="-34.600524000" hotelLongitude="-58.376764000" address="Maipu 657" zip="C1006AGC" city="Buenos Aires" location="Downtown" state="Buenos Aires" stateCode="BA" countryCode="AR" destinationCode="BUE" stars="3" status="UpToDate" bestVal="0" providerId="2" uploaded="false"/><Hotel hotelId="1297182" hotelName="Two Hotel Buenos Aires" destinationId="20307" hotelLatitude="-34.611683500" hotelLongitude="-58.377439200" address="Moreno 785" zip="C1091AAN" city="Buenos Aires" location="Downtown" state="Buenos Aires" stateCode="BA" countryCode="AR" destinationCode="BUE" stars="3" status="UpToDate" bestVal="0" providerId="2" uploaded="false"/><Hotel hotelId="1032046" hotelName="Unique Executive Central" destinationId="20307" hotelLatitude="-34.602614075" hotelLongitude="-58.383150101" address="Diagonal Roque Saenz Pena 1174" zip="1342" city="Buenos Aires" location="Downtown" state="Buenos Aires" stateCode="BA" countryCode="AR" destinationCode="BUE" stars="4" status="UpToDate" bestVal="0" providerId="2" uploaded="false"/><Hotel hotelId="1205399" hotelName="Viamonte Buenos Aires Apart" destinationId="20307" hotelLatitude="-34.600539200" hotelLongitude="-58.386359600" address="Viamonte 1373 " zip="C1053ACA" city="Buenos Aires" location="Downtown" state="Buenos Aires" stateCode="BA" countryCode="AR" destinationCode="BUE" stars="4" status="UpToDate" bestVal="0" providerId="2" uploaded="false"/><Hotel hotelId="1214772" hotelName="Viasui " destinationId="20307" hotelLatitude="-34.599726282" hotelLongitude="-58.380371332" address="Viamonte 960" zip="" city="Buenos Aires" location="Downtown" state="Buenos Aires" stateCode="BA" countryCode="AR" destinationCode="BUE" stars="3" status="UpToDate" bestVal="0" providerId="2" uploaded="false"/><Hotel hotelId="1211865" hotelName="Waldorf Hotel" destinationId="20307" hotelLatitude="-34.596900210" hotelLongitude="-58.373408318" address="Paraguay 450" zip="1057" city="Buenos Aires" location="Downtown" state="Buenos Aires" stateCode="BA" countryCode="AR" destinationCode="BUE" stars="3" status="UpToDate" bestVal="0" providerId="2" uploaded="false"/></Hotels></CityLocation><CityLocation name="" elementType="2" destinationId="20308" provider="2" status="UpToDate" location="Retiro" destinationCode="BUE" city="Buenos Aires" cityDestinationId="2080"><Hotels><Hotel hotelId="11087" hotelName="Melia Buenos Aires Hotel " destinationId="20308" hotelLatitude="-34.596662162" hotelLongitude="-58.373137217" address="Reconquista 945" zip="C1003ABS" city="Buenos Aires" location="Retiro" state="Buenos Aires" stateCode="BA" countryCode="AR" destinationCode="BUE" stars="5" status="UpToDate" bestVal="1" providerId="2" uploaded="false"/><Hotel hotelId="1322406" hotelName="Alvear Art Hotel" destinationId="20308" hotelLatitude="-34.596056000" hotelLongitude="-58.379915000" address="Suipacha 1036" zip="C1008AAV" city="Buenos Aires" location="Retiro" state="Buenos Aires" stateCode="BA" countryCode="AR" destinationCode="BUE" stars="5" status="UpToDate" bestVal="0" providerId="2" uploaded="false"/><Hotel hotelId="1213160" hotelName="Feir's Park Hotel &amp; Rooftop" destinationId="20308" hotelLatitude="-34.591512300" hotelLongitude="-58.378135400" address="Esmeralda 1366" zip="1007" city="Buenos Aires" location="Retiro" state="Buenos Aires" stateCode="BA" countryCode="AR" destinationCode="BUE" stars="5" status="UpToDate" bestVal="0" providerId="2" uploaded="false"/><Hotel hotelId="1034982" hotelName="Sofitel Buenos Aires Arroyo" destinationId="20308" hotelLatitude="-34.591862900" hotelLongitude="-58.379108500" address="Arroyo 841" zip="C1007AAB" city="Buenos Aires" location="Retiro" state="Buenos Aires" stateCode="BA" countryCode="AR" destinationCode="BUE" stars="5" status="UpToDate" bestVal="0" providerId="2" uploaded="false"/><Hotel hotelId="6828" hotelName="Sheraton Buenos Aires &amp; Convention Center" destinationId="20308" hotelLatitude="-34.592678586" hotelLongitude="-58.372914791" address="San Martin 1225" zip="1104" city="Buenos Aires" location="Retiro" state="Buenos Aires" stateCode="BA" countryCode="AR" destinationCode="BUE" stars="5" status="UpToDate" bestVal="0" providerId="2" uploaded="false"/><Hotel hotelId="9227" hotelName="NH Florida" destinationId="20308" hotelLatitude="-34.597721547" hotelLongitude="-58.373912573" address="San Martin 839" zip="C1004AAQ" city="Buenos Aires" location="Retiro" state="Buenos Aires" stateCode="BA" countryCode="AR" destinationCode="BUE" stars="4" status="UpToDate" bestVal="0" providerId="2" uploaded="false"/><Hotel hotelId="1205378" hotelName="NH Lancaster Collection" destinationId="20308" hotelLatitude="-34.597898178" hotelLongitude="-58.372839689" address="Av. Cordoba 405" zip="C1054AAD" city="Buenos Aires" location="Retiro" state="Buenos Aires" stateCode="BA" countryCode="AR" destinationCode="BUE" stars="4" status="UpToDate" bestVal="0" providerId="2" uploaded="false"/><Hotel hotelId="1032082" hotelName="NH Crillon" destinationId="20308" hotelLatitude="-34.595137700" hotelLongitude="-58.378350700" address="Avenida Santa Fe 796" zip="1059ABO" city="Buenos Aires" location="Retiro" state="Buenos Aires" stateCode="BA" countryCode="AR" destinationCode="BUE" stars="4" status="UpToDate" bestVal="0" providerId="2" uploaded="false"/><Hotel hotelId="15468" hotelName="Plaza Hotel Buenos Aires" destinationId="20308" hotelLatitude="-34.595608100" hotelLongitude="-58.375052000" address="Florida 1005" zip="C1005AAU " city="Buenos Aires" location="Retiro" state="Buenos Aires" stateCode="BA" countryCode="AR" destinationCode="BUE" stars="5" status="UpToDate" bestVal="0" providerId="2" uploaded="false"/><Hotel hotelId="1204807" hotelName="Argenta Tower Hotel &amp; Suites" destinationId="20308" hotelLatitude="-34.592751000" hotelLongitude="-58.379577000" address="Juncal 868" zip="1062" city="Buenos Aires" location="Retiro" state="Buenos Aires" stateCode="BA" countryCode="AR" destinationCode="BUE" stars="4" status="UpToDate" bestVal="0" providerId="2" uploaded="false"/><Hotel hotelId="1418105" hotelName="Arroyo Hotel " destinationId="20308" hotelLatitude="-34.591725000" hotelLongitude="-58.380017000" address="Suipacha 1359" zip="C1011ACC" city="Buenos Aires" location="Retiro" state="Buenos Aires" stateCode="BA" countryCode="AR" destinationCode="BUE" stars="4" status="UpToDate" bestVal="0" providerId="2" uploaded="false"/><Hotel hotelId="1215682" hotelName="Dazzler Maipu" destinationId="20308" hotelLatitude="-34.598166800" hotelLongitude="-58.376957400" address="Maipu 856" zip="1006" city="Buenos Aires" location="Retiro" state="Buenos Aires" stateCode="BA" countryCode="AR" destinationCode="BUE" stars="4" status="UpToDate" bestVal="0" providerId="2" uploaded="false"/><Hotel hotelId="1034629" hotelName="Gran Hotel Buenos Aires" destinationId="20308" hotelLatitude="-34.596342900" hotelLongitude="-58.377928000" address="Marcelo T de Alvear 767" zip="C1058AAI" city="Buenos Aires" location="Retiro" state="Buenos Aires" stateCode="BA" countryCode="AR" destinationCode="BUE" stars="4" status="UpToDate" bestVal="0" providerId="2" uploaded="false"/><Hotel hotelId="1332336" hotelName="HA Flats Quartier Basavilbaso" destinationId="20308" hotelLatitude="-34.592086000" hotelLongitude="-58.376908000" address="Basavilbaso 1350" zip="C1006AAD" city="Buenos Aires" location="Retiro" state="Buenos Aires" stateCode="BA" countryCode="AR" destinationCode="BUE" stars="3.7" status="UpToDate" bestVal="0" providerId="2" uploaded="false"/><Hotel hotelId="1200268" hotelName="Loi Suites Esmeralda" destinationId="20308" hotelLatitude="-34.595964053" hotelLongitude="-58.378418684" address="Marcelo T. de Alvear 842" zip="C1058AAL" city="Buenos Aires" location="Retiro" state="Buenos Aires" stateCode="BA" countryCode="AR" destinationCode="BUE" stars="4" status="UpToDate" bestVal="0" providerId="2" uploaded="false"/><Hotel hotelId="1261855" hotelName="Park Tower Buenos Aires" destinationId="20308" hotelLatitude="-34.593496700" hotelLongitude="-58.373666100" address="Avenida N Alem 1193" zip="C100AAG" city="Buenos Aires" location="Retiro" state="Buenos Aires" stateCode="BA" countryCode="AR" destinationCode="BUE" stars="5" status="UpToDate" bestVal="0" providerId="2" uploaded="false"/></Hotels></CityLocation><CityLocation name="" elementType="2" destinationId="20309" provider="2" status="UpToDate" location="San Telmo" destinationCode="BUE" city="Buenos Aires" cityDestinationId="2080"><Hotels><Hotel hotelId="9702" hotelName="Cuatro Reyes" destinationId="20309" hotelLatitude="-34.617830700" hotelLongitude="-58.385730900" address="Avenida Independencia 1391" zip="1100" city="Buenos Aires" location="San Telmo" state="Buenos Aires" stateCode="BA" countryCode="AR" destinationCode="BUE" stars="4" status="UpToDate" bestVal="0" providerId="2" uploaded="false"/><Hotel hotelId="1300469" hotelName="San Telmo Flats " destinationId="20309" hotelLatitude="-34.619392000" hotelLongitude="-58.377294000" address="Piedras 990" zip="C1070AAT" city="Buenos Aires" location="San Telmo" state="Buenos Aires" stateCode="BA" countryCode="AR" destinationCode="BUE" stars="4" status="UpToDate" bestVal="0" providerId="2" uploaded="false"/><Hotel hotelId="1322422" hotelName="Unique Palacio San Telmo" destinationId="20309" hotelLatitude="-34.611544890" hotelLongitude="-58.374890322" address="Moreno 606" zip="1091" city="Buenos Aires" location="San Telmo" state="Buenos Aires" stateCode="BA" countryCode="AR" destinationCode="BUE" stars="4" status="UpToDate" bestVal="0" providerId="2" uploaded="false"/><Hotel hotelId="1221356" hotelName="Alma del Plata Buenos Aires Hotel" destinationId="20309" hotelLatitude="-34.615532848" hotelLongitude="-58.384437561" address="Santiago del Estero 727 " zip="C1075AAO" city="Buenos Aires" location="San Telmo" state="Buenos Aires" stateCode="BA" countryCode="AR" destinationCode="BUE" stars="3" status="UpToDate" bestVal="0" providerId="2" uploaded="false"/><Hotel hotelId="1439298" hotelName="Anselmo Buenos Aires, Curio A Collection by Hilton" destinationId="20309" hotelLatitude="-34.620232000" hotelLongitude="-58.372202000" address="Don Anselmo Aieta 1069" zip="C1103" city="Buenos Aires" location="San Telmo" state="Buenos Aires" stateCode="BA" countryCode="AR" destinationCode="BUE" stars="4" status="UpToDate" bestVal="0" providerId="2" uploaded="false"/><Hotel hotelId="1216145" hotelName="Babel Boutique" destinationId="20309" hotelLatitude="-34.618658483" hotelLongitude="-58.370125294" address="Balcarce 946" zip="1064" city="Buenos Aires" location="San Telmo" state="Buenos Aires" stateCode="BA" countryCode="AR" destinationCode="BUE" stars="3" status="UpToDate" bestVal="0" providerId="2" uploaded="false"/><Hotel hotelId="1355337" hotelName="Babel Suites" destinationId="20309" hotelLatitude="-34.615126978" hotelLongitude="-58.378029589" address="Mexico Street , 840" zip="1097" city="Buenos Aires" location="San Telmo" state="Buenos Aires" stateCode="BA" countryCode="AR" destinationCode="BUE" stars="3" status="UpToDate" bestVal="0" providerId="2" uploaded="false"/><Hotel hotelId="1217738" hotelName="Dazzler San Telmo" destinationId="20309" hotelLatitude="-34.611642000" hotelLongitude="-58.377933000" address="Piedras 303" zip="C1070AAG" city="Buenos Aires" location="San Telmo" state="Buenos Aires" stateCode="BA" countryCode="AR" destinationCode="BUE" stars="4" status="UpToDate" bestVal="0" providerId="2" uploaded="false"/><Hotel hotelId="1232034" hotelName="Hostel Inn Buenos Aires" destinationId="20309" hotelLatitude="-34.620907500" hotelLongitude="-58.377541200" address="Humberto Primo 820" zip="1103" city="Buenos Aires" location="San Telmo" state="Buenos Aires" stateCode="BA" countryCode="AR" destinationCode="BUE" stars="1" status="UpToDate" bestVal="0" providerId="2" uploaded="false"/><Hotel hotelId="1031480" hotelName="Imagine Hotel Boutique" destinationId="20309" hotelLatitude="-34.615506478" hotelLongitude="-58.385245494" address="Mexico 1330" zip="" city="Buenos Aires" location="San Telmo" state="Buenos Aires" stateCode="BA" countryCode="AR" destinationCode="BUE" stars="4" status="UpToDate" bestVal="0" providerId="2" uploaded="false"/><Hotel hotelId="1273601" hotelName="Kenton Palace Buenos Aires Hotel" destinationId="20309" hotelLatitude="-34.611753529" hotelLongitude="-58.371951600" address="Defensa 383" zip="1065" city="Buenos Aires" location="San Telmo" state="Buenos Aires" stateCode="BA" countryCode="AR" destinationCode="BUE" stars="4" status="UpToDate" bestVal="0" providerId="2" uploaded="false"/><Hotel hotelId="1213342" hotelName="Mansion Dandi Royal Tango Hotel" destinationId="20309" hotelLatitude="-34.618786700" hotelLongitude="-58.377296400" address="Piedras 922" zip="C1070AAT" city="Buenos Aires" location="San Telmo" state="Buenos Aires" stateCode="BA" countryCode="AR" destinationCode="BUE" stars="4" status="UpToDate" bestVal="0" providerId="2" uploaded="false"/><Hotel hotelId="1218437" hotelName="Mansion Vitraux" destinationId="20309" hotelLatitude="-34.619479900" hotelLongitude="-58.371096700" address="Carlos Calvo 369" zip="1102" city="Buenos Aires" location="San Telmo" state="Buenos Aires" stateCode="BA" countryCode="AR" destinationCode="BUE" stars="4" status="UpToDate" bestVal="0" providerId="2" uploaded="false"/><Hotel hotelId="1415828" hotelName="Merit San Telmo " destinationId="20309" hotelLatitude="-34.610535600" hotelLongitude="-58.377727800" address="Adolfo Alsina 801" zip="C1087AAM" city="Buenos Aires" location="San Telmo" state="Buenos Aires" stateCode="BA" countryCode="AR" destinationCode="BUE" stars="3" status="UpToDate" bestVal="0" providerId="2" uploaded="false"/><Hotel hotelId="1428030" hotelName="Patios De San Telmo" destinationId="20309" hotelLatitude="-34.616809300" hotelLongitude="-58.375925900" address="Chacabuco 752" zip="1069" city="Buenos Aires" location="San Telmo" state="Buenos Aires" stateCode="BA" countryCode="AR" destinationCode="BUE" stars="4" status="UpToDate" bestVal="0" providerId="2" uploaded="false"/><Hotel hotelId="1209817" hotelName="Ribera Sur" destinationId="20309" hotelLatitude="-34.620936414" hotelLongitude="-58.368773460" address="Paseo Colon 1145" zip="" city="Buenos Aires" location="San Telmo" state="Buenos Aires" stateCode="BA" countryCode="AR" destinationCode="BUE" stars="3" status="UpToDate" bestVal="0" providerId="2" uploaded="false"/><Hotel hotelId="1229858" hotelName="Scala Hotel Buenos Aires" destinationId="20309" hotelLatitude="-34.616645376" hotelLongitude="-58.380188942" address="Bernardo de Irigoyen 740" zip="C1072AAP" city="Buenos Aires" location="San Telmo" state="Buenos Aires" stateCode="BA" countryCode="AR" destinationCode="BUE" stars="4" status="UpToDate" bestVal="0" providerId="2" uploaded="false"/></Hotels></CityLocation><CityLocation name="" elementType="2" destinationId="20310" provider="2" status="UpToDate" location="Abasto" destinationCode="BUE" city="Buenos Aires" cityDestinationId="2080"><Hotels><Hotel hotelId="19499" hotelName="Abasto Hotel" destinationId="20310" hotelLatitude="-34.604052000" hotelLongitude="-58.410223600" address="Av. Corrientes 3190" zip="C1193AAQ" city="Buenos Aires" location="Abasto" state="Buenos Aires" stateCode="BA" countryCode="AR" destinationCode="BUE" stars="5" status="UpToDate" bestVal="0" providerId="2" uploaded="false"/><Hotel hotelId="1210986" hotelName="Tribeca Studios" destinationId="20310" hotelLatitude="-34.610529000" hotelLongitude="-58.427225300" address="Bartolome Mitre 4284" zip="C1201ABD" city="Buenos Aires" location="Abasto" state="Buenos Aires" stateCode="BA" countryCode="AR" destinationCode="BUE" stars="3.7" status="UpToDate" bestVal="0" providerId="2" uploaded="false"/></Hotels></CityLocation><CityLocation name="" elementType="2" destinationId="20311" provider="2" status="UpToDate" location="Congreso" destinationCode="BUE" city="Buenos Aires" cityDestinationId="2080"><Hotels><Hotel hotelId="1031771" hotelName="Castelar Hotel &amp; Spa" destinationId="20311" hotelLatitude="-34.609336137" hotelLongitude="-58.382683671" address="Avenida De Mayo 1152" zip="1085ABO" city="Buenos Aires" location="Congreso" state="Buenos Aires" stateCode="BA" countryCode="AR" destinationCode="BUE" stars="4" status="UpToDate" bestVal="0" providerId="2" uploaded="false"/><Hotel hotelId="1209214" hotelName="Duomi Plaza Hotel" destinationId="20311" hotelLatitude="-34.607691900" hotelLongitude="-58.387420500" address="Bartolome Mitre 1480" zip="C1037ABB" city="Buenos Aires" location="Congreso" state="Buenos Aires" stateCode="BA" countryCode="AR" destinationCode="BUE" stars="3" status="UpToDate" bestVal="0" providerId="2" uploaded="false"/><Hotel hotelId="1217524" hotelName="America Plaza Hotel" destinationId="20311" hotelLatitude="-34.607960300" hotelLongitude="-58.391263800" address="Bartolome Mitre 1744" zip="C1037ABH" city="Buenos Aires" location="Congreso" state="Buenos Aires" stateCode="BA" countryCode="AR" destinationCode="BUE" stars="3" status="UpToDate" bestVal="0" providerId="2" uploaded="false"/><Hotel hotelId="1213451" hotelName="Apart Hotel &amp; Spa Congreso" destinationId="20311" hotelLatitude="-34.608024100" hotelLongitude="-58.392362500" address="Bartolome Mitre 1824" zip="1039" city="Buenos Aires" location="Congreso" state="Buenos Aires" stateCode="BA" countryCode="AR" destinationCode="BUE" stars="4" status="UpToDate" bestVal="0" providerId="2" uploaded="false"/><Hotel hotelId="1218333" hotelName="BA Central Hotel" destinationId="20311" hotelLatitude="-34.607409179" hotelLongitude="-58.396131992" address="Junin 357" zip="Argentina" city="Buenos Aires" location="Congreso" state="Buenos Aires" stateCode="BA" countryCode="AR" destinationCode="BUE" stars="3" status="UpToDate" bestVal="0" providerId="2" uploaded="false"/><Hotel hotelId="1220494" hotelName="Hotel Mundial" destinationId="20311" hotelLatitude="-34.609324900" hotelLongitude="-58.384860500" address="Avenida de Mayo 1298 " zip="1085" city="Buenos Aires" location="Congreso" state="Buenos Aires" stateCode="BA" countryCode="AR" destinationCode="BUE" stars="2" status="UpToDate" bestVal="0" providerId="2" uploaded="false"/><Hotel hotelId="1321140" hotelName="Ibis Buenos Aires Congreso" destinationId="20311" hotelLatitude="-34.610103900" hotelLongitude="-58.388915700" address="Hipolito Yrigoyen 1592" zip="1089" city="Buenos Aires" location="Congreso" state="Buenos Aires" stateCode="BA" countryCode="AR" destinationCode="BUE" stars="3" status="UpToDate" bestVal="0" providerId="2" uploaded="false"/><Hotel hotelId="1243885" hotelName="La Perla Hotel" destinationId="20311" hotelLatitude="-34.610301000" hotelLongitude="-58.405905000" address="Av Jujuy 36" zip="C1083AN" city="Buenos Aires" location="Congreso" state="Buenos Aires" stateCode="BA" countryCode="AR" destinationCode="BUE" stars="3" status="UpToDate" bestVal="0" providerId="2" uploaded="false"/><Hotel hotelId="1220135" hotelName="Napoleon Hotel" destinationId="20311" hotelLatitude="-34.608925492" hotelLongitude="-58.385428179" address="Rivadavia 1364" zip="1033" city="Buenos Aires" location="Congreso" state="Buenos Aires" stateCode="BA" countryCode="AR" destinationCode="BUE" stars="3" status="UpToDate" bestVal="0" providerId="2" uploaded="false"/><Hotel hotelId="1209641" hotelName="San Remo City Hotel" destinationId="20311" hotelLatitude="-34.608363600" hotelLongitude="-58.384938400" address="Talcahuano 24" zip="C1013AAB" city="Buenos Aires" location="Congreso" state="Buenos Aires" stateCode="BA" countryCode="AR" destinationCode="BUE" stars="3" status="UpToDate" bestVal="0" providerId="2" uploaded="false"/><Hotel hotelId="1031672" hotelName="Sarmiento Palace Hotel" destinationId="20311" hotelLatitude="-34.605800100" hotelLongitude="-58.394469800" address="Sarmiento 1953" zip="1044" city="Buenos Aires" location="Congreso" state="Buenos Aires" stateCode="BA" countryCode="AR" destinationCode="BUE" stars="3" status="UpToDate" bestVal="0" providerId="2" uploaded="false"/><Hotel hotelId="1205371" hotelName="Tribeca Buenos Aires Apart" destinationId="20311" hotelLatitude="-34.607484900" hotelLongitude="-58.384445900" address="Bartolome Mitre 1265" zip="C1036AAW" city="Buenos Aires" location="Congreso" state="Buenos Aires" stateCode="BA" countryCode="AR" destinationCode="BUE" stars="3.7" status="UpToDate" bestVal="0" providerId="2" uploaded="false"/></Hotels></CityLocation><CityLocation name="" elementType="2" destinationId="20312" provider="2" status="UpToDate" location="Barrio Norte" destinationCode="BUE" city="Buenos Aires" cityDestinationId="2080"><Hotels><Hotel hotelId="1031247" hotelName="Art Deco Buenos Aires" destinationId="20312" hotelLatitude="-34.603293746" hotelLongitude="-58.383844760" address="Libertad 446" zip="C1012AAJ" city="Buenos Aires" location="Barrio Norte" state="Buenos Aires" stateCode="BA" countryCode="AR" destinationCode="BUE" stars="3" status="UpToDate" bestVal="0" providerId="2" uploaded="false"/><Hotel hotelId="1212071" hotelName="Callao Plaza Suites" destinationId="20312" hotelLatitude="-34.598282535" hotelLongitude="-58.393275515" address="Callao 930" zip="1023" city="Buenos Aires" location="Barrio Norte" state="Buenos Aires" stateCode="BA" countryCode="AR" destinationCode="BUE" stars="3" status="UpToDate" bestVal="0" providerId="2" uploaded="false"/><Hotel hotelId="1215879" hotelName="Hotel de las Americas" destinationId="20312" hotelLatitude="-34.596615100" hotelLongitude="-58.384246100" address="Libertad 1020" zip="C1012AAV" city="Buenos Aires" location="Barrio Norte" state="Buenos Aires" stateCode="BA" countryCode="AR" destinationCode="BUE" stars="4" status="UpToDate" bestVal="0" providerId="2" uploaded="false"/><Hotel hotelId="1222555" hotelName="Novotel Buenos Aires" destinationId="20312" hotelLatitude="-34.604095563" hotelLongitude="-58.385583342" address="Av. Corrientes 1334" zip="C1043ABN" city="Buenos Aires" location="Barrio Norte" state="Buenos Aires" stateCode="BA" countryCode="AR" destinationCode="BUE" stars="4" status="UpToDate" bestVal="0" providerId="2" uploaded="false"/><Hotel hotelId="1212290" hotelName="Piccaluga Apartments" destinationId="20312" hotelLatitude="-34.597111000" hotelLongitude="-58.389176400" address="Marcelo T. Alvear 1563" zip="1020" city="Buenos Aires" location="Barrio Norte" state="Buenos Aires" stateCode="BA" countryCode="AR" destinationCode="BUE" stars="3.7" status="UpToDate" bestVal="0" providerId="2" uploaded="false"/><Hotel hotelId="1205705" hotelName="Zentra Hotel" destinationId="20312" hotelLatitude="-34.601519022" hotelLongitude="-58.396024704" address="Tucuman 2057" zip="C1050AAO" city="Buenos Aires" location="Barrio Norte" state="Buenos Aires" stateCode="BA" countryCode="AR" destinationCode="BUE" stars="3" status="UpToDate" bestVal="0" providerId="2" uploaded="false"/></Hotels></CityLocation><CityLocation name="" elementType="2" destinationId="20377" provider="2" status="UpToDate" location="Aeroparque" destinationCode="BUE" city="Buenos Aires" cityDestinationId="2080"><Hotels><Hotel hotelId="1205387" hotelName="Aeroparque Inn &amp; Suites" destinationId="20377" hotelLatitude="-34.569566200" hotelLongitude="-58.398923200" address="Avenida Rafael Obligado 1221" zip="1425" city="Buenos Aires" location="Aeroparque" state="Buenos Aires" stateCode="BA" countryCode="AR" destinationCode="BUE" stars="3" status="UpToDate" bestVal="0" providerId="2" uploaded="false"/></Hotels></CityLocation><CityLocation name="" elementType="2" destinationId="20378" provider="2" status="UpToDate" location="Nunez" destinationCode="BUE" city="Buenos Aires" cityDestinationId="2080"><Hotels><Hotel hotelId="1220431" hotelName="Sarum Hotel Design" destinationId="20378" hotelLatitude="-34.554251000" hotelLongitude="-58.462966000" address="Quesada 2370" zip="1429" city="Buenos Aires" location="Nunez" state="Buenos Aires" stateCode="BA" countryCode="AR" destinationCode="BUE" stars="3" status="UpToDate" bestVal="0" providerId="2" uploaded="false"/></Hotels></CityLocation><Hotels><Hotel hotelId="1243814" hotelName="A&amp;B Internacional" destinationId="2080" hotelLatitude="-34.606069800" hotelLongitude="-58.389356200" address="Montevideo 248" zip="1009" city="Buenos Aires" state="Buenos Aires" stateCode="BA" countryCode="AR" destinationCode="BUE" stars="3" status="UpToDate" bestVal="0" providerId="2" uploaded="false"/><Hotel hotelId="1446934" hotelName="Ayamitre Hotel" destinationId="2080" hotelLatitude="-34.607904000" hotelLongitude="-58.395033000" address="Ayacucho 106" zip="1025" city="Buenos Aires" state="Buenos Aires" stateCode="BA" countryCode="AR" destinationCode="BUE" stars="2" status="UpToDate" bestVal="0" providerId="2" uploaded="false"/><Hotel hotelId="1446692" hotelName="Babel City" destinationId="2080" hotelLatitude="-34.606043000" hotelLongitude="-58.378161000" address="J D Peron 838" zip="1038" city="Buenos Aires" state="Buenos Aires" stateCode="BA" countryCode="AR" destinationCode="BUE" stars="3" status="UpToDate" bestVal="0" providerId="2" uploaded="false"/><Hotel hotelId="1358303" hotelName="Beautiful Studio in San Telmo / Rooftop pool and gym - - QAP 12668" destinationId="2080" hotelLatitude="-34.624196700" hotelLongitude="-58.371002700" address="385 Av Juan de Garay" zip="C1153ABB  " city="Buenos Aires" state="Buenos Aires" stateCode="BA" countryCode="AR" destinationCode="BUE" stars="3.5" status="UpToDate" bestVal="0" providerId="39" uploaded="false"/><Hotel hotelId="1418234" hotelName="Beautiful Studio in the heart of San Telmo, Juan de Garay and Defensa St. - QAP 12674" destinationId="2080" hotelLatitude="-34.624196700" hotelLongitude="-58.371002700" address="385 Av Juan de Garay" zip="C1153ABB  " city="Buenos Aires" state="Buenos Aires" stateCode="BA" countryCode="AR" destinationCode="BUE" stars="3.5" status="UpToDate" bestVal="0" providerId="39" uploaded="false"/><Hotel hotelId="1439371" hotelName="Dora Hotel" destinationId="2080" hotelLatitude="-34.596779342" hotelLongitude="-58.376904540" address="Maipu 963" zip="" city="Buenos Aires" state="Buenos Aires" stateCode="BA" countryCode="AR" destinationCode="BUE" stars="4" status="UpToDate" bestVal="0" providerId="2" uploaded="false"/><Hotel hotelId="1436390" hotelName="El Cabildo Hotel" destinationId="2080" hotelLatitude="-34.602383403" hotelLongitude="-58.377316542" address="Lavalle 748" zip="C1006AGC" city="Buenos Aires" state="Buenos Aires" stateCode="BA" countryCode="AR" destinationCode="BUE" stars="4" status="UpToDate" bestVal="0" providerId="2" uploaded="false"/><Hotel hotelId="1446671" hotelName="Europlaza Hotel &amp; Suites" destinationId="2080" hotelLatitude="-34.605099100" hotelLongitude="-58.389380000" address="Montevideo 327" zip="C1019" city="Buenos Aires" state="Buenos Aires" stateCode="BA" countryCode="AR" destinationCode="BUE" stars="3" status="UpToDate" bestVal="0" providerId="2" uploaded="false"/><Hotel hotelId="1228134" hotelName="Golf Tower Suites and Apartments" destinationId="2080" hotelLatitude="-34.557014200" hotelLongitude="-58.441068800" address="La Pampa 1117" zip="1428" city="Buenos Aires" state="Buenos Aires" stateCode="BA" countryCode="AR" destinationCode="BUE" stars="3" status="UpToDate" bestVal="0" providerId="2" uploaded="false"/><Hotel hotelId="1445957" hotelName="Gran Via Hotel" destinationId="2080" hotelLatitude="-34.605348100" hotelLongitude="-58.387169100" address="Sarmiento 1450" zip="1042" city="Buenos Aires" state="Buenos Aires" stateCode="BA" countryCode="AR" destinationCode="BUE" stars="1" status="UpToDate" bestVal="0" providerId="2" uploaded="false"/><Hotel hotelId="1228990" hotelName="Hotel Pulitzer" destinationId="2080" hotelLatitude="-34.597473900" hotelLongitude="-58.376963700" address="Maipu 907" zip="1006" city="Buenos Aires" state="Buenos Aires" stateCode="BA" countryCode="AR" destinationCode="BUE" stars="4" status="UpToDate" bestVal="0" providerId="2" uploaded="false"/><Hotel hotelId="1445954" hotelName="Htl 9 de Julio" destinationId="2080" hotelLatitude="-34.749472500" hotelLongitude="-58.394331100" address="Alsina 1112" zip="1088" city="Buenos Aires" state="Buenos Aires" stateCode="BA" countryCode="AR" destinationCode="BUE" stars="4" status="UpToDate" bestVal="0" providerId="2" uploaded="false"/><Hotel hotelId="1262208" hotelName="Intercontinental Nordelta Tigre Buenos Aires" destinationId="2080" hotelLatitude="-34.396605000" hotelLongitude="-58.647637000" address="Avenida Del Puerto 240,bahia Grande" zip="1670" city="Buenos Aires" state="Buenos Aires" stateCode="BA" countryCode="AR" destinationCode="BUE" stars="5" status="UpToDate" bestVal="0" providerId="2" uploaded="false"/><Hotel hotelId="1445948" hotelName="Metropolitano Supara Hotel" destinationId="2080" hotelLatitude="-34.615522400" hotelLongitude="-58.388352800" address="Mexico 1559" zip="C1097ABE" city="Buenos Aires" state="Buenos Aires" stateCode="BA" countryCode="AR" destinationCode="BUE" stars="4" status="UpToDate" bestVal="0" providerId="2" uploaded="false"/><Hotel hotelId="1447558" hotelName="Milhouse Avenue Adults Only" destinationId="2080" hotelLatitude="-34.609073730" hotelLongitude="-58.384267419" address="Avenida de mayo 1245" zip="1056" city="Buenos Aires" state="Buenos Aires" stateCode="BA" countryCode="AR" destinationCode="BUE" stars="2" status="UpToDate" bestVal="0" providerId="2" uploaded="false"/><Hotel hotelId="1446875" hotelName="Nunez Suites" destinationId="2080" hotelLatitude="-34.548415200" hotelLongitude="-58.464964000" address="Nunez 2129" zip="1429" city="Buenos Aires" state="Buenos Aires" stateCode="BA" countryCode="AR" destinationCode="BUE" stars="3" status="UpToDate" bestVal="0" providerId="2" uploaded="false"/><Hotel hotelId="1445966" hotelName="Principado Hotel" destinationId="2080" hotelLatitude="-34.597354100" hotelLongitude="-58.374105000" address="Paraguay 481" zip="1057" city="Buenos Aires" state="Buenos Aires" stateCode="BA" countryCode="AR" destinationCode="BUE" stars="4" status="UpToDate" bestVal="0" providerId="2" uploaded="false"/><Hotel hotelId="1436389" hotelName="Reina Hotel" destinationId="2080" hotelLatitude="-34.609169000" hotelLongitude="-58.382331000" address="Av. de Mayo 1120" zip="C1085ABO" city="Buenos Aires" state="Buenos Aires" stateCode="BA" countryCode="AR" destinationCode="BUE" stars="1" status="UpToDate" bestVal="0" providerId="2" uploaded="false"/><Hotel hotelId="1232023" hotelName="Ritz Hotel &amp; Hostel BA" destinationId="2080" hotelLatitude="-34.609047700" hotelLongitude="-58.382149900" address="Av de Mayo 1111" zip="1085" city="Buenos Aires" state="Buenos Aires" stateCode="BA" countryCode="AR" destinationCode="BUE" stars="2" status="UpToDate" bestVal="0" providerId="2" uploaded="false"/><Hotel hotelId="1446931" hotelName="River Hotel" destinationId="2080" hotelLatitude="-34.608069000" hotelLongitude="-58.389263000" address="Montevideo 86" zip="1025" city="Buenos Aires" state="Buenos Aires" stateCode="BA" countryCode="AR" destinationCode="BUE" stars="3" status="UpToDate" bestVal="0" providerId="2" uploaded="false"/><Hotel hotelId="1338578" hotelName="San Antonio 372 Hotel" destinationId="2080" hotelLatitude="-34.597105000" hotelLongitude="-58.372698000" address="Paraguay 372" zip="1057" city="Buenos Aires" state="Buenos Aires" stateCode="BA" countryCode="AR" destinationCode="BUE" stars="3" status="UpToDate" bestVal="0" providerId="2" uploaded="false"/><Hotel hotelId="1428973" hotelName="Santo Studios Buenos Aires" destinationId="2080" hotelLatitude="-34.614801000" hotelLongitude="-58.374760000" address="Mexico 614" zip="1097" city="Buenos Aires" state="Buenos Aires" stateCode="BA" countryCode="AR" destinationCode="BUE" stars="3" status="UpToDate" bestVal="0" providerId="2" uploaded="false"/><Hotel hotelId="1445964" hotelName="Siena Hotel" destinationId="2080" hotelLatitude="-34.605836500" hotelLongitude="-58.376485900" address="Tte. Gral. Juan Domingo Peron 1554" zip="1037" city="Buenos Aires" state="Buenos Aires" stateCode="BA" countryCode="AR" destinationCode="BUE" stars="1" status="UpToDate" bestVal="0" providerId="2" uploaded="false"/><Hotel hotelId="1447733" hotelName="Soho Point Palermo Hotel" destinationId="2080" hotelLatitude="-34.593819400" hotelLongitude="-58.412504500" address="Paraguay 3261" zip="" city="Buenos Aires" state="Buenos Aires" stateCode="BA" countryCode="AR" destinationCode="BUE" stars="3.7" status="UpToDate" bestVal="0" providerId="2" uploaded="false"/><Hotel hotelId="1233221" hotelName="Super Resort Buenos Aires" destinationId="2080" hotelLatitude="-34.606077000" hotelLongitude="-58.379853100" address="Tte. J.D. Peron 940" zip="1038" city="Buenos Aires" state="Buenos Aires" stateCode="BA" countryCode="AR" destinationCode="BUE" stars="3" status="UpToDate" bestVal="0" providerId="2" uploaded="false"/><Hotel hotelId="1437487" hotelName="Tango de Mayo" destinationId="2080" hotelLatitude="-34.609329100" hotelLongitude="-58.386226300" address="Avenida de Mayo 1396" zip="C1085ABQ" city="Buenos Aires" state="Buenos Aires" stateCode="BA" countryCode="AR" destinationCode="BUE" stars="4" status="UpToDate" bestVal="0" providerId="2" uploaded="false"/></Hotels></City><City name="Campana" elementType="3" destinationId="27265" provider="2" status="UpToDate" destinationCode="EZE" cityLatitude="" cityLongitude=""><Hotels><Hotel hotelId="1438429" hotelName="Dazzler Campana" destinationId="27265" hotelLatitude="-34.249204000" hotelLongitude="-58.908558000" address="Ruta Panamericana Km 66.5" zip="2804" city="Campana" state="Buenos Aires" stateCode="BA" countryCode="AR" destinationCode="EZE" stars="4" status="UpToDate" bestVal="0" providerId="2" uploaded="false"/></Hotels></City><City name="Carilo" elementType="3" destinationId="18425" provider="2" status="UpToDate" destinationCode="MDQ" cityLatitude="-35.62998233369500" cityLongitude="-65.15900064411360"><Hotels><Hotel hotelId="1401284" hotelName="Howard Johnson Hotel and Convention Center Madaria" destinationId="18425" hotelLatitude="-37.161499000" hotelLongitude="-56.899792000" address="RN11 KM 400" zip="7167" city="Carilo" state="Buenos Aires" stateCode="BA" countryCode="AR" destinationCode="MDQ" stars="3" status="UpToDate" bestVal="0" providerId="2" uploaded="false"/></Hotels></City><City name="Ezeiza" elementType="3" destinationId="23257" provider="2" status="UpToDate" destinationCode="EZE" cityLatitude="" cityLongitude=""><Hotels><Hotel hotelId="1254260" hotelName="Hotel de Campo La Morena" destinationId="23257" hotelLatitude="-34.810773000" hotelLongitude="-58.542624000" address="Baradero s/n entre montevideo y antartida argentina" zip="" city="Ezeiza" state="Buenos Aires" stateCode="BA" countryCode="AR" destinationCode="EZE" stars="3" status="UpToDate" bestVal="0" providerId="2" uploaded="false"/><Hotel hotelId="1318213" hotelName="Hotel Plaza Central Canning" destinationId="23257" hotelLatitude="-34.513718000" hotelLongitude="-58.301488000" address="Avenida Mariano Castex 1277" zip="1804" city="Ezeiza" state="Buenos Aires" stateCode="BA" countryCode="AR" destinationCode="EZE" stars="4" status="UpToDate" bestVal="0" providerId="2" uploaded="false"/><Hotel hotelId="1329879" hotelName="Howard Johnson Resort &amp; Convention Center" destinationId="23257" hotelLatitude="-34.443910349" hotelLongitude="-58.890838542" address="Autopista Ezeiza Cañuelas KM 40.5" zip="1806" city="Ezeiza" state="Buenos Aires" stateCode="BA" countryCode="AR" destinationCode="EZE" stars="4" status="UpToDate" bestVal="0" providerId="2" uploaded="false"/></Hotels></City><City name="Mar Del Plata" elementType="3" destinationId="6366" provider="2" status="UpToDate" destinationCode="MDQ" cityLatitude="-37.99487044701480" cityLongitude="-57.56672628726760"><Hotels><Hotel hotelId="1041535" hotelName="Costa Galana Hotel" destinationId="6366" hotelLatitude="-37.996703790" hotelLongitude="-57.550163269" address="Patricio Peralta Ramos 5725" zip="B7602EAI" city="Mar Del Plata" state="Buenos Aires" stateCode="BA" countryCode="AR" destinationCode="MDQ" stars="5" status="UpToDate" bestVal="0" providerId="2" uploaded="false"/><Hotel hotelId="1031415" hotelName="Merit Mar del Plata Hotel" destinationId="6366" hotelLatitude="-37.992019000" hotelLongitude="-57.545648000" address="Av Libertad 2936" zip="B7600HJN" city="Mar Del Plata" state="Buenos Aires" stateCode="BA" countryCode="AR" destinationCode="MDQ" stars="4" status="UpToDate" bestVal="0" providerId="2" uploaded="false"/><Hotel hotelId="1041490" hotelName="Riviera Hotel" destinationId="6366" hotelLatitude="-37.994867032" hotelLongitude="-57.566897042" address="Belgrano 2118" zip="00001" city="Mar Del Plata" state="Buenos Aires" stateCode="BA" countryCode="AR" destinationCode="MDQ" stars="3" status="UpToDate" bestVal="0" providerId="2" uploaded="false"/><Hotel hotelId="1419038" hotelName="Gran Hotel Mar del Plata" destinationId="6366" hotelLatitude="-38.001941319" hotelLongitude="-57.543946496" address="Rivadavia 2235, Mar del Plata" zip="7600" city="Mar Del Plata" state="Buenos Aires" stateCode="BA" countryCode="AR" destinationCode="MDQ" stars="3" status="UpToDate" bestVal="0" providerId="2" uploaded="false"/><Hotel hotelId="1445961" hotelName="Hotel Spa Republica Mar del Plata" destinationId="6366" hotelLatitude="-38.001578200" hotelLongitude="-57.548607500" address="Cordoba 1968" zip="7600" city="Mar Del Plata" state="Buenos Aires" stateCode="BA" countryCode="AR" destinationCode="MDQ" stars="4" status="UpToDate" bestVal="0" providerId="2" uploaded="false"/><Hotel hotelId="1041550" hotelName="Iruna Hotel" destinationId="6366" hotelLatitude="-37.994867032" hotelLongitude="-57.566897042" address="Juan Bautista Alberdi 2270" zip="B7600GYB" city="Mar Del Plata" state="Buenos Aires" stateCode="BA" countryCode="AR" destinationCode="MDQ" stars="4" status="UpToDate" bestVal="0" providerId="2" uploaded="false"/><Hotel hotelId="1041548" hotelName="Presidente Hotel" destinationId="6366" hotelLatitude="-37.994867032" hotelLongitude="-57.566897042" address="Corrientes, 1516" zip="B7600EBH" city="Mar Del Plata" state="Buenos Aires" stateCode="BA" countryCode="AR" destinationCode="MDQ" stars="3" status="UpToDate" bestVal="0" providerId="2" uploaded="false"/></Hotels></City><City name="Pilar" elementType="3" destinationId="17180" provider="2" status="UpToDate" destinationCode="AEP" cityLatitude="-35.62998233369500" cityLongitude="-65.15900064411360"><Hotels><Hotel hotelId="1428597" hotelName="Campus Suites" destinationId="17180" hotelLatitude="-34.454478000" hotelLongitude="-58.859721000" address="Mariano Acosta 1650" zip="1669" city="Pilar" state="Buenos Aires" stateCode="BA" countryCode="AR" destinationCode="AEP" stars="3" status="UpToDate" bestVal="0" providerId="2" uploaded="false"/><Hotel hotelId="1340409" hotelName="Howard Johnson Resort Pilar" destinationId="17180" hotelLatitude="-41.124056000" hotelLongitude="-73.738037000" address="Cancha Rayada y Argerich" zip="16030" city="Pilar" state="Buenos Aires" stateCode="BA" countryCode="AR" destinationCode="AEP" stars="2" status="UpToDate" bestVal="0" providerId="2" uploaded="false"/><Hotel hotelId="1446415" hotelName="Pro Hotel" destinationId="17180" hotelLatitude="-34.457244000" hotelLongitude="-58.865972000" address="Peron 1461" zip="1635" city="Pilar" state="Buenos Aires" stateCode="BA" countryCode="AR" destinationCode="AEP" stars="3" status="UpToDate" bestVal="0" providerId="2" uploaded="false"/><Hotel hotelId="1032197" hotelName="Sheraton Pilar Hotel &amp; Convention Center" destinationId="17180" hotelLatitude="-34.443797000" hotelLongitude="-58.865109000" address="Panamericana Ramal Pilar KM 49.5" zip="1629 " city="Pilar" state="Buenos Aires" stateCode="BA" countryCode="AR" destinationCode="AEP" stars="5" status="UpToDate" bestVal="0" providerId="2" uploaded="false"/><Hotel hotelId="1264016" hotelName="Sofitel La Reserva Cardales" destinationId="17180" hotelLatitude="-34.273545000" hotelLongitude="-58.898638000" address=" Ruta Panamericana No. 9, Km 61 Campana Buenos Aires" zip="2804" city="Pilar" state="Buenos Aires" stateCode="BA" countryCode="AR" destinationCode="AEP" stars="5" status="UpToDate" bestVal="0" providerId="2" uploaded="false"/></Hotels></City><City name="Ramallo" elementType="3" destinationId="22244" provider="2" status="UpToDate" destinationCode="EZE" cityLatitude="" cityLongitude=""><Hotels><Hotel hotelId="1331550" hotelName="Howard Johnson Hotel Ramallo" destinationId="22244" hotelLatitude="-33.481263000" hotelLongitude="-59.995909000" address="1055 San Lorenzo" zip="2915" city="Ramallo" state="Buenos Aires" stateCode="BA" countryCode="AR" destinationCode="EZE" stars="2" status="UpToDate" bestVal="0" providerId="2" uploaded="false"/></Hotels></City><City name="Vicente Lopez" elementType="3" destinationId="22133" provider="2" status="UpToDate" destinationCode="EZE" cityLatitude="" cityLongitude=""><Hotels><Hotel hotelId="1299965" hotelName="Ramada Buenos Aires " destinationId="22133" hotelLatitude="-34.602699532" hotelLongitude="-58.373969318" address="San Martin 450" zip="B1638BOO" city="Vicente Lopez" state="Buenos Aires" stateCod